id,vertex,lat,lon,name,localityName,code,direction,description,locationType,locationSubType,wheelchairBoarding,routeIds,stopColorType,style,parentStationId,type
BKK_CSF00936,BKK:BKK_CSF00936,47.510442,19.056726,Nyugati pályaudvar,1062,CSF00936,,kc~`HsmisBNCNFJLHRBTAX}CrUGTKNOFOAMGyDwD??qDwDMSEY@]FWNOfNyIFC\K,1,stop-area,False,[],OTHER,"{'colors': ['FF9900', 'FFD800', '005CA5', '00AFF0', '2E5EA8', 'AACD46', 'FFCD28', '000000', '009EE3', 'E41F18'], 'type': 'PRIORITY', 'image': 'stop-icon-M3'}",,
BKK_CSF00940,BKK:BKK_CSF00940,47.506715,19.055143,Báthory utca / Bajcsy-Zsilinszky út,1065,CSF00940,,}n}`H_uhsBDT@VETGRMJ_EtBOBOCMKKSCUYcH@[HYNOPEfC@RFNRpAlD,1,stop-area,False,[],OTHER,"{'colors': ['000000', '009EE3', 'E41F18']}",,
BKK_CSF00945,BKK:BKK_CSF00945,47.500009,19.055603,Bajcsy-Zsilinszky út,1061,CSF00945,,sg|`HyvhsB@ZGXMPOHSAOKgBaCKSCY@YFWNONEPBtAn@LLFJL`@HbA,1,stop-area,False,[],OTHER,"{'colors': ['FFD800', '000000', '009EE3', 'EE7203'], 'type': 'PRIORITY', 'image': 'stop-icon-M1'}",,
BKK_CS072858,BKK:BKK_CS072858,47.505896,19.047993,Kossuth Lajos tér,1055,CS072858,,od}`HywfsBBXCXGRONmGnDQDQEOMGWyIyi@AYBYHUNMPCdFP@@rANLDLLFTlHdc@,1,stop-area,False,[],OTHER,"{'colors': ['FF9900', 'FFD800', 'E41F18', '009EE3'], 'type': 'PRIORITY', 'image': 'stop-icon-M2'}",,
BKK_CSF00990,BKK:BKK_CSF00990,47.50897,19.050341,Markó utca,1055,CSF00990,,id~`He|gsBAYDWHSNKPANFLNFVz@hI@XEVIROJQ@OGMOGW{@iI,1,stop-area,False,[],OTHER,{'colors': ['009EE3']},,
BKK_CSF00956,BKK:BKK_CSF00956,47.503647,19.054758,Arany János utca,1054,CSF00956,,g{|`H{thsBJPFV@ZGXKPOH}Cj@M@sEa@QGMQGW?[DWJSPK|GsAN?LFtAhA,1,stop-area,False,[],OTHER,"{'colors': ['005CA5', '000000', '009EE3', 'FF9900', 'E41F18'], 'type': 'PRIORITY', 'image': 'stop-icon-M3'}",,
BKK_CSF00968,BKK:BKK_CSF00968,47.509001,19.046677,"Országház, látogatóközpont",1055,CSF00968,,uc~`Hi_gsBMOIUCYBYHSLOPCNBz@d@LLHTBXCXITMLQDOE{@c@,1,stop-area,False,[],OTHER,"{'colors': ['FF9900', 'FFD800']}",,
BKK_CSF00974,BKK:BKK_CSF00974,47.500208,19.046501,Széchenyi István tér,1051,CSF00974,,kc|`HeegsBP@NJJTBZAZITON}IbEQBOEMOKSGUAYBY`@gBLWRKdIiA,1,stop-area,False,[],OTHER,"{'colors': ['FF9900', 'FFD800', '000000', '009EE3']}",,
BKK_CS048505,BKK:BKK_CS048505,47.50048,19.054859,Szent István Bazilika,1051,CS048505,,il|`HwvhsBNGPBLJJRDXAXGTMPsA`AOFQCMKKSEY@YFULQrAaA,1,stop-area,False,[],OTHER,"{'colors': ['000000', '009EE3', 'E41F18']}",,
BKK_CS062942,BKK:BKK_CS062942,47.501636,19.077828,Péterfy Sándor utca,1077,CS062942,,et|`HoemsBPDLLHT@XAXITMLQBQCMMIUCYBYHULMPE,1,stop-area,False,[],OTHER,"{'colors': ['E41F18', 'FF9900']}",,
BKK_CS009026,BKK:BKK_CS009026,47.505219,19.057721,Zichy Jenő utca,1065,CS009026,,mi}`HgdisBGTMNOFQAMKKSEY@YJu@FULQNEP@NJHRDXAXKt@,1,stop-area,False,[],OTHER,{'colors': ['E41F18']},,
BKK_CS062517,BKK:BKK_CS062517,47.501817,19.075598,Rózsák tere,1074,CS062517,,iu|`HqwlsBNDNLHT@XAXITOLOBQCMMIUCYBYHULMPE,1,stop-area,False,[],OTHER,{'colors': ['E41F18']},,
BKK_CS090482,BKK:BKK_CS090482,47.506775,19.086169,Ötvenhatosok tere,1146,CS090482,,op}`HoynsBNLHVBZCfFAXIRMNOBQAMMwHoKKUCY@YFULOPGPBzHfD,1,stop-area,False,[],OTHER,"{'colors': ['000000', '009EE3', 'E41F18', 'FF9900']}",,
BKK_CS042790,BKK:BKK_CS042790,47.510421,19.091707,Stefánia út,1146,CS042790,,ck~`Hg|osBPDLLHTBXCXITMLQDOEOMGUCYBYFUNMNE,1,stop-area,False,[],OTHER,{'colors': ['777777']},,
BKK_CSF01076,BKK:BKK_CSF01076,47.502807,19.059813,Opera,1066,CSF01076,,kv|`H_misB@VAXIRMNODOCOKoFkHIQEU?WDUn@aCJSNKPANHLPhD~IDLTnA,1,stop-area,False,[],OTHER,"{'colors': ['FFD800', '000000', '009EE3', 'EE7203', 'E41F18'], 'type': 'PRIORITY', 'image': 'stop-icon-M1'}",,
BKK_CSF01083,BKK:BKK_CSF01083,47.505253,19.063066,Oktogon,1066,CSF01083,,sb}`H_ajsB@ZCXKTQJQ@cJwAQKMUE[Ak@@M\{G@EDe@FUJQLGPA~Ex@LFJLFR~AjK,1,stop-area,False,[],OTHER,"{'colors': ['FF9900', 'FFD800', '000000', '009EE3', 'EE7203'], 'type': 'PRIORITY', 'image': 'stop-icon-M1'}",,
BKK_CSF01084,BKK:BKK_CSF01084,47.506334,19.061597,Aradi utca (Oktogon M),1066,CSF01084,,qq}`Ha`jsBPDLLHTBXCXITMLQDQEMMIUAY@YHULMPE,1,stop-area,False,[],OTHER,"{'colors': ['000000', '009EE3']}",,
BKK_CSF01034,BKK:BKK_CSF01034,47.503095,19.065938,Király utca / Erzsébet körút,1073,CSF01034,,k{|`Hy|jsBN@LLHPDVAXC^GV_AzBMPOFQAOKyAiBIQEW?WDUJQLKjBo@HAr@A,1,stop-area,False,[],OTHER,"{'colors': ['FF9900', 'FFD800', '000000', '009EE3', 'E41F18']}",,
BKK_CSF01033,BKK:BKK_CSF01033,47.502103,19.062976,Akácfa utca,1061,CSF01033,,aw|`HwhjsBP@NHJPDX?XEVMPOHSBQ?OIKSEW?YFWJQNIRE,1,stop-area,False,[],OTHER,{'colors': ['E41F18']},,
BKK_CSF01042,BKK:BKK_CSF01042,47.505564,19.069454,Izabella utca / Király utca,1077,CSF01042,,ki}`HamksB@XCZKRQJQ@e@KICgCyAMOIYA[DYLSvB_CLIPANFJNFRr@dF,1,stop-area,False,[],OTHER,"{'colors': ['E41F18', 'FF9900']}",,
BKK_CSF01046,BKK:BKK_CSF01046,47.508014,19.075734,Reformáció park,1071,CSF01046,,a|}`HaslsBMNQDOCOKIUCY@YFUbAsBLOPGNBNLHRDXCXGTcAtB,1,stop-area,False,[],OTHER,{'colors': ['E41F18']},,
BKK_CSF01045,BKK:BKK_CSF01045,47.507101,19.071944,Lövölde tér,1077,CSF01045,,kt}`Hi_lsBLPDV@XEVKROJQ?OGoAgAMOGW?[DWJSLIPAPFnAfA,1,stop-area,False,[],OTHER,{'colors': ['E41F18']},,
BKK_CSF01021,BKK:BKK_CSF01021,47.502261,19.051986,Hercegprímás utca,1051,CSF01021,,cx|`H_dhsBPDLLHTBXCXITMLQDOEOMGUCYBYFUNMNE,1,stop-area,False,[],OTHER,{'colors': ['009EE3']},,
BKK_CSF01020,BKK:BKK_CSF01020,47.503142,19.048522,Széchenyi utca,1054,CSF01020,,s}|`HingsBPBLLHTBXCXITMLQDOEOMGUCYBYFUNMNC,1,stop-area,False,[],OTHER,{'colors': ['009EE3']},,
BKK_CSF01022,BKK:BKK_CSF01022,47.505148,19.052398,Hold utca (Belvárosi piac),1054,CSF01022,,cj}`HqfhsBNDNLFTBXCXGTOLOBQCMMIUCYBYHULMPE,1,stop-area,False,[],OTHER,{'colors': ['009EE3']},,
BKK_CSF01090,BKK:BKK_CSF01090,47.507872,19.067039,Andrássy út (Vörösmarty utca M),1064,CSF01090,,w|}`HizjsBONODQCMMIUCY@YHUfDmGLOPEPBLLHTBXAXITgDlG,1,stop-area,False,[],OTHER,"{'colors': ['E41F18', 'FF9900']}",,
BKK_CSF01097,BKK:BKK_CSF01097,47.509442,19.069675,Kodály körönd,1062,CSF01097,,}a~`HqmksB?XCVIRMJODOEMKcA{AGQ_AqDCY@[HWLOPEPDNNnBvDHXPtA,1,stop-area,False,[],OTHER,"{'colors': ['FFD800', '000000', '009EE3'], 'type': 'PRIORITY', 'image': 'stop-icon-M1'}",,
BKK_CSF01117,BKK:BKK_CSF01117,47.502825,19.073555,Wesselényi utca / Izabella utca,1077,CSF01117,,s{|`HyjlsBPDLLHT@XAXITMLQDQEMMIUCYBYHULMPE,1,stop-area,False,[],OTHER,{'colors': ['E41F18']},,
BKK_CSF01115,BKK:BKK_CSF01115,47.500266,19.069091,Wesselényi utca / Erzsébet körút,1073,CSF01115,,yh|`HioksBPFLNFV@XEVITk@r@OJQ@w@IICyBgAMMIWCYBYJUNMPCxE\,1,stop-area,False,[],OTHER,"{'colors': ['FF9900', 'FFD800', '000000', '009EE3', 'E41F18']}",,
BKK_CSF01119,BKK:BKK_CSF01119,47.503877,19.072507,Dob utca,1077,CSF01119,,eb}`HgdlsBNDNLHT@XAXITOLODQEMMIUCYBYHULMPE,1,stop-area,False,[],OTHER,"{'colors': ['E41F18', 'FF9900']}",,
BKK_CSF01118,BKK:BKK_CSF01118,47.502546,19.072161,Almássy tér,1074,CSF01118,,{y|`HablsBPBLNHR@XAXITMNQBQCMOIUCYBYHSLOPC,1,stop-area,False,[],OTHER,{'colors': ['E41F18']},,
BKK_CSF01120,BKK:BKK_CSF01120,47.503733,19.074444,Rózsa utca,1077,CSF01120,,ia}`HkplsBPDLLHTBXCXITMLQDOEOMIUAY@YHUNMNE,1,stop-area,False,[],OTHER,"{'colors': ['E41F18', 'FF9900']}",,
BKK_CSF01123,BKK:BKK_CSF01123,47.506422,19.076609,Bethlen Gábor utca,1071,CSF01123,,cr}`H{}lsBPBLNHTBXCXIRMNQBOCOOGSCYBYFUNONC,1,stop-area,False,[],OTHER,{'colors': ['E41F18']},,
BKK_CSF01122,BKK:BKK_CSF01122,47.502935,19.076798,Rottenbiller utca / István utca,1077,CSF01122,,}||`HoamsBHWNORCPFLPFX?ZUfEETKROHO@OEMOSc@GSAWBWh@cD,1,stop-area,False,[],OTHER,"{'colors': ['EE7203', 'E41F18', 'FF9900']}",,
BKK_CSF01127,BKK:BKK_CSF01127,47.504514,19.078414,Bethlen Gábor tér,1077,CSF01127,,ef}`HeimsBPDLLHTBXCXITMLQDQEMMIUAY@YHULMPE,1,stop-area,False,[],OTHER,{'colors': ['E41F18']},,
BKK_CSF01126,BKK:BKK_CSF01126,47.506212,19.079122,Nefelejcs utca / Damjanich utca,1071,CSF01126,,{d}`HgsmsBATGRILqOjOMFQ@MGeBuAKQGWA[FYJStR{QPIR@NLJTBZ?fD,1,stop-area,False,[],OTHER,{'colors': ['E41F18']},,
BKK_CSF01173,BKK:BKK_CSF01173,47.500288,19.072996,Szövetség utca,1074,CSF01173,,wk|`HiglsBNDNLFTBXCXGTOLODQEMMIUCYBYHULMPE,1,stop-area,False,[],OTHER,{'colors': ['E41F18']},,
BKK_CSF01172,BKK:BKK_CSF01172,47.500053,19.079155,Munkás utca,1076,CSF01172,,_i|`HgmmsBLJJRBXAXGVMNQDOAu@[OKISEY@YHWLONEP@t@Z,1,stop-area,False,[],OTHER,"{'colors': ['EE7203', 'E41F18', 'FF9900']}",,
BKK_CSF01151,BKK:BKK_CSF01151,47.501804,19.089836,Verseny utca,1087,CSF01151,,iv|`HguosBHWLOPEPBLLHTBZC`NCXGRMNQBOCMKISEYQuJ@YTkB,1,stop-area,False,[],OTHER,{'colors': ['009EE3']},,
BKK_CSF01131,BKK:BKK_CSF01131,47.500164,19.082899,Keleti pályaudvar,1087,CSF01131,,id|`HeansB?TCP}A|FELaAnBONSDQGuIeGMQIW?[p@oPDYLSPIP?jLdDNHJTDVTbH,1,stop-area,False,[],OTHER,"{'colors': ['FF9900', 'FFD800', '4CA22F', 'E41F18', '008000', '00AFF0', '2E5EA8', 'AACD46', 'FFCD28', '000000', '009EE3'], 'type': 'PRIORITY', 'image': 'stop-icon-M2'}",,
BKK_CSF01134,BKK:BKK_CSF01134,47.509413,19.08222,Damjanich utca / Dózsa György út,1071,CSF01134,,qa~`H}{msB@XEXKROLQ?OGwBmBMOGW?YDY|@_DJSNKNANFLNFTx@nG,1,stop-area,False,[],OTHER,"{'colors': ['000000', '009EE3', 'EE7203', 'E41F18', 'FF9900']}",,
BKK_CSF01138,BKK:BKK_CSF01138,47.508133,19.083699,Dembinszky utca,1071,CSF01138,,k~}`HifnsBOIKQGW?YDYJQNKP?rATNFLPDV?XEXKPOJO?uAS,1,stop-area,False,[],OTHER,"{'colors': ['000000', '009EE3', 'E41F18', 'FF9900']}",,
BKK_CSF01144,BKK:BKK_CSF01144,47.503866,19.088846,Reiner Frigyes park,1071,CSF01144,,g~|`HadosBCZKVOLS@}Cg@OGKOGSAWByDB]LUNKtCq@R?PJJTB\DrG,1,stop-area,False,[],OTHER,"{'colors': ['000000', '009EE3']}",,
BKK_CSF01143,BKK:BKK_CSF01143,47.503703,19.085939,Cserhát utca,1078,CSF01143,,ca}`HexnsBPBLNHTBXCXIRMNQBOCOOISAY@YHUNONC,1,stop-area,False,[],OTHER,"{'colors': ['E41F18', 'FF9900']}",,
BKK_CS007980,BKK:BKK_CS007980,47.507301,19.066479,Vörösmarty utca,1064,CS007980,,iu}`H{zjsB@XCVIRMLQBOCMMq@gAIUCWA}@@YHULOPEPBLN`@r@JXPpA,1,stop-area,False,[],OTHER,"{'colors': ['FFD800', '000000', '009EE3', 'EE7203'], 'type': 'PRIORITY', 'image': 'stop-icon-M1'}",,
BKK_CSF00034,BKK:BKK_CSF00034,47.50801,19.033983,Fazekas utca,1027,CSF00034,,gy}`H{ndsBBXCZIVOLQBQGMQcByDGUA[DWJSNKNAPFv@n@HJFPj@hC,1,stop-area,False,[],OTHER,"{'colors': ['000000', '009EE3']}",,
BKK_CSF00068,BKK:BKK_CSF00068,47.506738,19.034794,Mária tér,1015,CSF00068,,at}`HqxdsBNDNLFTBXCXGTOLODQEMMIUCYBYHULMPE,1,stop-area,False,[],OTHER,"{'colors': ['000000', '009EE3']}",,
BKK_CSF00065,BKK:BKK_CSF00065,47.506335,19.038704,Batthyány tér,1011,CSF00065,,ol}`HotesBNJJRBZAX{@zFGTKNqH~FQFQAOMIWCYAyN@YHSJONEzGe@N@rAb@,1,stop-area,False,[],OTHER,"{'colors': ['FF9900', 'FFD800', 'E41F18', '000000', '009EE3', '8A236C'], 'type': 'PRIORITY', 'image': 'stop-icon-M2'}",,
BKK_CSF00071,BKK:BKK_CSF00071,47.501315,19.033803,Szentháromság tér,1014,CSF00071,,{p|`HkodsBEXIROHQ@OIMOGW?YBe@DWHSNKPANHLPFV?XCb@,1,stop-area,False,[],OTHER,"{'colors': ['000000', '009EE3', '824B00']}",,
BKK_CSF00045,BKK:BKK_CSF00045,47.501307,19.036072,Donáti utca,1015,CSF00045,,cr|`Ho`esBNBNLHT@XAXITOLODQEMMIUCYBYHULMPC,1,stop-area,False,[],OTHER,"{'colors': ['000000', '009EE3']}",,
BKK_CSF00053,BKK:BKK_CSF00053,47.502064,19.039658,Halász utca,1011,CSF00053,,qs|`H}pesBCVGTKLOFOAOIgCqCKQEW?WDWHQNKbCu@NANDLNFRBVBfE,1,stop-area,False,[],OTHER,"{'colors': ['FF9900', 'FFD800', '000000']}",,
BKK_CSF02717,BKK:BKK_CSF02717,47.505841,19.091456,Cházár András utca,1146,CSF02717,,im}`HcwosBGTMPODQAOMISEY@YJq@FWLONEP@NLHRDXAXKp@,1,stop-area,False,[],OTHER,"{'colors': ['000000', '009EE3']}",,
BKK_CSF02718,BKK:BKK_CSF02718,47.508399,19.094853,Stefánia út / Thököly út,1146,CSF02718,,k{}`HmrpsBPHLRDX?\e@dEGTKPOFQ?mCm@OIKQEY?YZsDDWHONKN?xCX,1,stop-area,False,[],OTHER,"{'colors': ['000000', '009EE3', 'E41F18']}",,
BKK_CSF02708,BKK:BKK_CSF02708,47.510314,19.084191,Dvořák sétány,1146,CSF02708,,el~`HmlnsBAYDYHSNKPCNFLNFVXxB@XEXIROJQBOGMQGUYyB,1,stop-area,False,[],OTHER,{'colors': ['E41F18']},,
BKK_CSF02712,BKK:BKK_CSF02712,47.510213,19.090331,Zichy Géza utca,1146,CSF02712,,al~`H}rosBGW?YFWJQNIP?NHJPfA`DDV?ZEVKPOHQ?OIMQeAcD,1,stop-area,False,[],OTHER,"{'colors': ['000000', 'E41F18']}",,
BKK_CS011732,BKK:BKK_CS011732,47.497833,19.054473,Deák Ferenc tér,1051,CS011732,,gw{`HsbisBNMPCNFLNHV?XQ|FANiCzOIRKLOFOA{H_CMIKSEW?YFWb@iADIhAgB??hJeN,1,stop-area,False,[],OTHER,"{'colors': ['FF9900', 'FFD800', '005CA5', 'E41F18', '000000', '009EE3', 'EE7203'], 'type': 'PRIORITY', 'image': 'stop-icon-M1'}",,
BKK_CS011493,BKK:BKK_CS011493,47.489618,19.090158,Baross kocsiszín (Baross kapu),1086,CS011493,,aiz`HqrosBNDNLFTBXCXGTOLOBQCMMIUCYBYHULMPE,1,stop-area,False,[],OTHER,{'colors': ['777777']},,
BKK_CS009702,BKK:BKK_CS009702,47.492432,19.087855,Magdolna utca,1086,CS009702,,wuz`HicosBAXGVMNyEhDODOAMIKSEW?WDWh@_BBEdDaHJOPEP@LLJRBXHtE,1,stop-area,False,[],OTHER,"{'colors': ['FF9900', 'FFD800']}",,
BKK_CS056232,BKK:BKK_CS056232,47.49497,19.077219,II. János Pál pápa tér,1081,CS056232,,wd{`HqbmsBNHJPDV?VEVKPoCbDOJO@QGyCgCAAaB_BKQEUAYDUHSNKNCxGTH@nBl@,1,stop-area,False,[],OTHER,"{'colors': ['FF9900', 'FFD800', '4CA22F', '009EE3'], 'type': 'PRIORITY', 'image': 'stop-icon-M4'}",,
BKK_CSF00922,BKK:BKK_CSF00922,47.48671,19.05736,Fővám tér,1093,CSF00922,,ipy`HmfisBJRDVAXGVKNuE`EQHQAOMKUe@wBAGYyBA]DYLUPIjEg@N@NJjAvA,1,stop-area,False,[],OTHER,"{'colors': ['FF9900', 'FFD800', '4CA22F', '000000', '009EE3', 'E41F18'], 'type': 'PRIORITY', 'image': 'stop-icon-M4'}",,
BKK_CSF00924,BKK:BKK_CSF00924,47.493105,19.050566,Petőfi tér,1052,CSF00924,,{~z`Hc{gsBPDLLHT@XAXITMLQDQEMMIUCYBYHULMPE,1,stop-area,False,[],OTHER,{'colors': ['009EE3']},,
BKK_CS008269,BKK:BKK_CS008269,47.484577,19.096308,Delej utca,1089,CS008269,,qiy`HkypsBPGP@LJJRDXAXGVKNo@f@OFQAOKKSCW?YFWLQl@g@,1,stop-area,False,[],OTHER,{'colors': ['009EE3']},,
BKK_CSF00976,BKK:BKK_CSF00976,47.497885,19.047095,Eötvös tér,1051,CSF00976,,i}{`HkegsBNMPANFLNFV@XCVKTWZMLQ@OGMOGWAYBWJUT[,1,stop-area,False,[],OTHER,"{'colors': ['FF9900', 'FFD800']}",,
BKK_CSF00979,BKK:BKK_CSF00979,47.498726,19.050168,József nádor tér,1051,CSF00979,,_b|`HsxgsBPDLLHT@XAXITMLQBQCMMIUCYBYHULMPE,1,stop-area,False,[],OTHER,"{'colors': ['000000', '009EE3']}",,
BKK_CSF00981,BKK:BKK_CSF00981,47.498978,19.050884,Hild tér,1051,CSF00981,,qc|`Hc}gsBNDNLFTBXCXGTOLODQEMMIUCYBYHULMPE,1,stop-area,False,[],OTHER,"{'colors': ['000000', '009EE3']}",,
BKK_CSF00980,BKK:BKK_CSF00980,47.498645,19.051535,Erzsébet tér,1051,CSF00980,,oa|`HeahsBPDLLHT@XAXITMLQDQEMMIUCYBYHULMPE,1,stop-area,False,[],OTHER,{'colors': ['009EE3']},,
BKK_CSF00983,BKK:BKK_CSF00983,47.492679,19.055753,Ferenciek tere,1053,CSF00983,,mwz`HyaisBNENBNJHPDVAXETyEbMMPQHQCOKIUE[AaDA??eC@WHULO|E{C,1,stop-area,False,[],OTHER,"{'colors': ['005CA5', '000000', '009EE3', 'FF9900'], 'type': 'PRIORITY', 'image': 'stop-icon-M3'}",,
BKK_CSF00982,BKK:BKK_CSF00982,47.495371,19.052782,Szervita tér,1052,CSF00982,,am{`H}hhsBPBLLHTBXCXITMLQDOEOMGUCYBYFUNMNC,1,stop-area,False,[],OTHER,{'colors': ['009EE3']},,
BKK_CSF00986,BKK:BKK_CSF00986,47.499679,19.049464,Zrínyi utca,1051,CSF00986,,}g|`HgtgsBNDNLFTBXCXGTOLODQEMMIUCYBYHULMPE,1,stop-area,False,[],OTHER,{'colors': ['009EE3']},,
BKK_CSF00967,BKK:BKK_CSF00967,47.495592,19.048362,Vigadó tér,1051,CSF00967,,ko{`HylgsBLQPEN@NLJRBVAZGTINMNOFQCMKKSCY@YFUFO,1,stop-area,False,[],OTHER,"{'colors': ['FF9900', 'FFD800']}",,
BKK_CSF00965,BKK:BKK_CSF00965,47.496704,19.050393,Vörösmarty tér,1051,CSF00965,,ys{`HewgsB@XEXKPOJQ@OIMQEWMoA?YDWHSNKP?NFLPFVJnA,1,stop-area,False,[],OTHER,"{'colors': ['FFD800'], 'type': 'PRIORITY', 'image': 'stop-icon-M1'}",,
BKK_CS069174,BKK:BKK_CS069174,47.48438,19.060928,Czuczor utca,1093,CS069174,,khy`H{{isBPDLLHTBXCXITMLQBOCMMIUCYBYHULMNE,1,stop-area,False,[],OTHER,"{'colors': ['009EE3', 'E41F18']}",,
BKK_CS072934,BKK:BKK_CS072934,47.489698,19.047151,Rudas Gyógyfürdő,1013,CS072934,,cez`HadgsBLNHT@XAXKTMLQBg@AGAeDw@OIKQGW?YFWFUJQNKn@OL?LBtC~A,1,stop-area,False,[],OTHER,"{'colors': ['FF9900', 'FFD800', '000000', '009EE3']}",,
BKK_CS009647,BKK:BKK_CS009647,47.491893,19.087286,Baross kocsiszín (Magdolna kapu),1086,CS009647,,iwz`Hs`osBPDLLHTBXCXITMLQDOEOMIUAY@YHUNMNE,1,stop-area,False,[],OTHER,{'colors': ['FF9900']},,
BKK_CS109634,BKK:BKK_CS109634,47.486978,19.089063,Kőris utca,1089,CS109634,,gsy`HulosBNJJTDXAZIVON{GnDQDQEMOIWAYB[xA}FLUPKR?`ElA,1,stop-area,False,[],OTHER,"{'colors': ['009EE3', 'E41F18']}",,
BKK_CS049785,BKK:BKK_CS049785,47.498128,19.040508,Clark Ádám tér,1013,CS049785,,sy{`H_cfsBP@PLHTBZCZkBhJKTMJQDqAEGAiEeAOIMSEY@YFWLQjIsGNG|@I,1,stop-area,False,[],OTHER,"{'colors': ['FF9900', 'FFD800', '000000', '009EE3']}",,
BKK_CS109884,BKK:BKK_CS109884,47.484031,19.090981,Ludovika Aréna,1089,CS109884,,ggy`HewosBJULMPCNDLLHV@XCVMn@ITMLQBOEOOGUCYBYLm@,1,stop-area,False,[],OTHER,{'colors': ['E41F18']},,
BKK_CS062518,BKK:BKK_CS062518,47.491171,19.051601,Március 15. tér,1056,CS062518,,woz`H}ahsBPFLNHV?ZCVKTOJiD`AS?SMcAsAKUC[@YJWLORCjEN??^@,1,stop-area,False,[],OTHER,"{'colors': ['FF9900', 'FFD800', '000000', '009EE3']}",,
BKK_CS089515,BKK:BKK_CS089515,47.489528,19.061737,Kálvin tér,1092,CS089515,,qcz`HcojsBNKN?PFJPFV?X{@`REXKROH}FlASAOKKSyAsFCW?WDUJOpK{L,1,stop-area,False,[],OTHER,"{'colors': ['FF9900', 'FFD800', '005CA5', '4CA22F', '000000', '009EE3', 'EE7203', 'E41F18'], 'type': 'PRIORITY', 'image': 'stop-icon-M3'}",,
BKK_CSF01019,BKK:BKK_CSF01019,47.494347,19.060706,Astoria,1088,CSF01019,,aa{`HavisBFT?XCVKRMJyDvAQ@SIKSGYs@gP?YFWJOLIP?NFJNlFpM,1,stop-area,False,[],OTHER,"{'colors': ['FF9900', 'FFD800', 'E41F18', '000000', '009EE3', 'EE7203'], 'type': 'PRIORITY', 'image': 'stop-icon-M2'}",,
BKK_CSF01109,BKK:BKK_CSF01109,47.498554,19.06551,Nyár utca,1072,CSF01109,,}`|`HoxjsBPBLNHTBVCXITMNQBQCMOIUAY@WHULOPC,1,stop-area,False,[],OTHER,{'colors': ['E41F18']},,
BKK_CSF01108,BKK:BKK_CSF01108,47.495515,19.060134,Károly körút (Astoria M),1072,CSF01108,,}m{`H}visBPDLLHT@XAXITMLQDQEMMIUCYBYHULMPE,1,stop-area,False,[],OTHER,{'colors': ['E41F18']},,
BKK_CSF01110,BKK:BKK_CSF01110,47.496278,19.065642,Nagy Diófa utca,1072,CSF01110,,ur{`HiyjsBNBNLFTBXCXGTOLODQEMMIUCYBYHULMPC,1,stop-area,False,[],OTHER,{'colors': ['E41F18']},,
BKK_CSF01116,BKK:BKK_CSF01116,47.496618,19.070646,Blaha Lujza tér,1085,CSF01116,,ol{`HeyksB?XGVcFtLKPQFQCoIcDOKIQEW@WDU~CoJPWvJyFNCN@LJHRDVZtI,1,stop-area,False,[],OTHER,"{'colors': ['FF9900', 'FFD800', 'E41F18', '000000', '009EE3'], 'type': 'PRIORITY', 'image': 'stop-icon-M2'}",,
BKK_CSE09801,BKK:BKK_CSE09801,47.49764,19.038573,Szent György tér,1013,CSE09801,,g{{`HepesBPDLLHTBXCXITMLQDOEMMIUCYBYHULMNE,1,stop-area,False,[],OTHER,{'colors': ['777777']},,
BKK_CSF01190,BKK:BKK_CSF01190,47.485697,19.070357,Corvin-negyed,1085,CSF01190,,ely`HeblsBPKP?NJJPFXAZyArOIXMPqEpCMDOAOIIQEUo@yH?YDWJSxIkJ,1,stop-area,False,[],OTHER,"{'colors': ['FFD800', '005CA5', '000000', '009EE3', 'EE7203'], 'type': 'PRIORITY', 'image': 'stop-icon-M3'}",,
BKK_CSF01199,BKK:BKK_CSF01199,47.48979,19.070965,Harminckettesek tere,1085,CSF01199,,khz`Ho~ksBPIN@NJJPDX?Xc@pEGXMPSDuADUGcAq@MQIY?[FYLSzDcD,1,stop-area,False,[],OTHER,"{'colors': ['FFD800', '000000', '009EE3', 'E41F18']}",,
BKK_CSF01171,BKK:BKK_CSF01171,47.495613,19.065111,Uránia,1072,CSF01171,,wo{`HkujsBFWLQNGP@NJHRDX?XKx@GVKNQFQ?MKKSEY@YHy@,1,stop-area,False,[],OTHER,"{'colors': ['000000', '009EE3']}",,
BKK_CSF01175,BKK:BKK_CSF01175,47.489083,19.06633,Szentkirályi utca,1085,CSF01175,,wcz`HgyjsB@ZCVITOJOBQEMOGWk@}DAYBYJULKPCNFLNHTh@|D,1,stop-area,False,[],OTHER,"{'colors': ['000000', '009EE3', 'E41F18']}",,
BKK_CSF01176,BKK:BKK_CSF01176,47.48912,19.080382,Muzsikus cigányok parkja,1083,CSF01176,,sez`HanmsBGTMPODQAOMISEY@Y~@gHFWLONGPBNJHRDXAX_AhH,1,stop-area,False,[],OTHER,"{'colors': ['000000', '009EE3', 'E41F18']}",,
BKK_CSF01182,BKK:BKK_CSF01182,47.499584,19.095937,Gumigyár,1087,CSF01182,,ag|`HcrpsBMLQDOEMMIUCYBYHUh@{@LOPCNDLLHTBXCXITi@z@,1,stop-area,False,[],OTHER,"{'colors': ['000000', 'E41F18']}",,
BKK_CSF01180,BKK:BKK_CSF01180,47.488882,19.095768,Kőbányai út 21.,1087,CSF01180,,mbz`HmtpsBDV?VEVIPi@n@OJQ?QIKSGYEcA?WDUHQZ_@NKPAPJLRRr@,1,stop-area,False,[],OTHER,{'colors': ['FFD800']},,
BKK_CSF01185,BKK:BKK_CSF01185,47.487176,19.068213,Üllői út,1085,CSF01185,,yyy`HmiksBPDLLHT@XAXITMLQDQEMMIUCYBYHULMPE,1,stop-area,False,[],OTHER,{'colors': ['E41F18']},,
BKK_CSF01163,BKK:BKK_CSF01163,47.497491,19.074043,Kiss József utca,1081,CSF01163,,iz{`H{mlsBPDLLHTBXCXITMLQDOEOMGUCYBYFUNMNE,1,stop-area,False,[],OTHER,{'colors': ['009EE3']},,
BKK_CSF01161,BKK:BKK_CSF01161,47.499167,19.078052,Huszár utca,1081,CSF01161,,qc|`HmbmsBEXKPOJQ@OGKQGWAYLeCDWHSNKP?NFLPFV?XKbC,1,stop-area,False,[],OTHER,"{'colors': ['000000', '009EE3']}",,
BKK_CS016729,BKK:BKK_CS016729,47.493459,19.032637,Naphegy tér,1016,CS016729,,s_{`HghdsB?ZGTMPOFQAOKKSCWE_A@YFWJONIP@NJJRDXB|@,1,stop-area,False,[],OTHER,{'colors': ['009EE3']},,
BKK_CS117920,BKK:BKK_CS117920,47.499352,19.087437,"Kerepesi út,MOL-töltőállomás",1087,CS117920,,}e|`HqaosBPDLLHTBXCXITMLQDOEOMGUCYBYFUNMNE,1,stop-area,False,[],OTHER,{'colors': ['777777']},,
BKK_CS082622,BKK:BKK_CS082622,47.498114,19.034494,Tábor utca,1012,CS082622,,e~{`HuvdsBPDLLHTBXCXITMLQDQEMMIUAY@YHULMPE,1,stop-area,False,[],OTHER,"{'colors': ['000000', '009EE3']}",,
BKK_CS008694,BKK:BKK_CS008694,47.486933,19.067178,Köztelek utca,1092,CS008694,,ixy`H}bksBPDLLHTBXCXITMLQBOCOMIUAY@YHUNMNE,1,stop-area,False,[],OTHER,"{'colors': ['000000', '009EE3']}",,
BKK_CSF01209,BKK:BKK_CSF01209,47.49221,19.078798,Mátyás tér,1084,CSF01209,,myz`HofmsBOLO@QEMOGWAYBYJSbAwANKNCPFLNFT@XCXKRcAvA,1,stop-area,False,[],OTHER,{'colors': ['009EE3']},,
BKK_CSF01207,BKK:BKK_CSF01207,47.489486,19.077052,Horváth Mihály tér,1082,CSF01207,,ugz`Ho{lsBITMLQBQGMOGUAYBYh@iCJSLMPCNDLNHT@XCXk@hC,1,stop-area,False,[],OTHER,"{'colors': ['000000', '009EE3', 'E41F18']}",,
BKK_CSF01217,BKK:BKK_CSF01217,47.489641,19.090653,Orczy tér,1086,CSF01217,,gcz`HexosB@ZEZcBnGKROJQ@yDg@QIKQGY?YDYn@eBBG`E{HLOPEPDNLHVl@zD,1,stop-area,False,[],OTHER,"{'colors': ['FF9900', 'FFD800', '000000', '009EE3', 'E41F18']}",,
BKK_CSF01221,BKK:BKK_CSF01221,47.489267,19.08563,Kálvária tér,1089,CSF01221,,ccz`HitnsBJRDV?XEVSj@IPOJO?OEgEyCMOGWAYDYHSNKlAc@RAPJlClC,1,stop-area,False,[],OTHER,"{'colors': ['000000', '009EE3', 'E41F18']}",,
BKK_CSF01227,BKK:BKK_CSF01227,47.485836,19.092803,Golgota tér,1089,CSF01227,,aly`HocpsBPFLPFX?ZEXMRQFcH|@QAMIKQEWAWF}@F[NSPG~DIB?~AH,1,stop-area,False,[],OTHER,"{'colors': ['FFD800', '009EE3']}",,
BKK_CSF01225,BKK:BKK_CSF01225,47.488403,19.08825,Csobánc utca,1086,CSF01225,,oaz`HsfosBPBLNHTBVCXITMNQBOCOOIUAY@WHUNONC,1,stop-area,False,[],OTHER,{'colors': ['E41F18']},,
BKK_CSF01200,BKK:BKK_CSF01200,47.492681,19.071378,Rákóczi tér,1085,CSF01200,,ayz`HqyksBBZEZMTQJu@NUAQMe@q@KYA_@PcGDWHSLKPCNDLNHRhAfH,1,stop-area,False,[],OTHER,"{'colors': ['FFD800', '4CA22F', '000000', '009EE3'], 'type': 'PRIORITY', 'image': 'stop-icon-M4'}",,
BKK_CSF01280,BKK:BKK_CSF01280,47.490945,19.096685,"Salgótarjáni utca, temető",1087,CSF01280,,qpz`HkvpsBGTMNQFOCOMISEYBY^kCFWLOPENBNLHRDXCX_@jC,1,stop-area,False,[],OTHER,{'colors': ['FFD800']},,
BKK_CSF01250,BKK:BKK_CSF01250,47.499578,19.090581,Arena Mall bevásárlóközpont,1087,CSF01250,,yf|`H_nosBEVMPOFQAOKKSEW@Yr@cHFWLQNGP@LJJRDV?Xu@bH,1,stop-area,False,[],OTHER,"{'colors': ['000000', 'E41F18']}",,
BKK_CSF00037,BKK:BKK_CSF00037,47.493422,19.043754,Várkert Bazár,1013,CSF00037,,q}z`H}jfsB?XGTKNOHO?sCk@OGKQGW?YDW~@_DHQNKdA]R?PHJTDZLdF,1,stop-area,False,[],OTHER,"{'colors': ['FF9900', 'FFD800']}",,
BKK_CSF00001,BKK:BKK_CSF00001,47.486079,19.034561,Mihály utca,1118,CSF00001,,}ry`HawdsBNBNNFRBXCXGTONOBQCMOIUCYBYHSLOPC,1,stop-area,False,[],OTHER,{'colors': ['009EE3']},,
BKK_CSF01330,BKK:BKK_CSF01330,47.49296,19.082916,Teleki László tér,1086,CSF01330,,kyz`HwhnsBNFJPFT@XEXKPkG~HOJO@QGKQGUAYHsDBWHSLK~EqCXC^F,1,stop-area,False,[],OTHER,"{'colors': ['FF9900', 'FFD800', '009EE3']}",,
BKK_CSF00006,BKK:BKK_CSF00006,47.489672,19.035809,Sánc utca,1016,CSF00006,,kgz`H}~dsBNNHT@ZCZWdAIPKLOBOCMKmBkCISEY@YHWLONEPBdCdA,1,stop-area,False,[],OTHER,"{'colors': ['000000', '009EE3']}",,
BKK_CSF01339,BKK:BKK_CSF01339,47.485548,19.06593,Ráday utca,1092,CSF01339,,soy`Hc{jsBNBNNFTBVCXGTONOBQCMOIUCYBWHULOPC,1,stop-area,False,[],OTHER,"{'colors': ['009EE3', 'E41F18']}",,
BKK_CSF00012,BKK:BKK_CSF00012,47.485383,19.040083,Búsuló Juhász (Citadella),1118,CSF00012,,ony`H{{esBJSNKP?NFJPFV@XEVuAtEIPOJQ@OIMOGW?YDYrAsE,1,stop-area,False,[],OTHER,{'colors': ['009EE3']},,
BKK_CSF00011,BKK:BKK_CSF00011,47.48795,19.036772,Szirtes út,1016,CSF00011,,a|y`HqbesBJRDV?XGVKPOHQAOIqB}BKQGY@YDWLQNGP?NJpBzB,1,stop-area,False,[],OTHER,{'colors': ['009EE3']},,
BKK_CSF01307,BKK:BKK_CSF01307,47.4964,19.083359,Dologház utca,1081,CSF01307,,us{`HqinsBLQPGPBNLJT@ZCZe@xBIROLOBQEQMOQG[?[F[v@kB,1,stop-area,False,[],OTHER,"{'colors': ['FF9900', 'FFD800', 'EE7203']}",,
BKK_CSF00082,BKK:BKK_CSF00082,47.49721,19.033698,Alagút utca,1013,CSF00082,,u{{`HmidsBOJQ@OIMOGW?[DWJS~F}GNKP?NFLPFV?XEVKR_G|G,1,stop-area,False,[],OTHER,"{'colors': ['000000', '009EE3']}",,
BKK_CSF00087,BKK:BKK_CSF00087,47.496825,19.032778,Krisztina tér,1013,CSF00087,,ws{`HokdsBFT@XEVs@pCIPMLOBQEKMIUCWC{B?C?cCB[HUPMPCPFLRt@nB,1,stop-area,False,[],OTHER,"{'colors': ['FF9900', 'FFD800', '000000', '009EE3']}",,
BKK_CSF00073,BKK:BKK_CSF00073,47.499112,19.035839,Dísz tér,1014,CSF00073,,ca|`Ho`esBPDJNHT@VCXIRMLmFtCOBOCMKISEW@WFWJOfD{CJIL?dAF,1,stop-area,False,[],OTHER,"{'colors': ['000000', '009EE3', '824B00']}",,
BKK_CSF00077,BKK:BKK_CSF00077,47.494097,19.037967,Dózsa György tér,1016,CSF00077,,ec{`HgoesBNEP@LJHRDV?Va@`EEVKNOHO?oDk@OIMUEY@[FWNQlEsC,1,stop-area,False,[],OTHER,"{'colors': ['FF9900', 'FFD800', '000000', '009EE3']}",,
BKK_CSF00076,BKK:BKK_CSF00076,47.495182,19.038529,"Palota út, gyorslift",1013,CSF00076,,{k{`H{oesBPBLNHTBXCXIRMNQBOCOOGSCYBYFUNONC,1,stop-area,False,[],OTHER,"{'colors': ['000000', '009EE3']}",,
BKK_CSF00105,BKK:BKK_CSF00105,47.490944,19.044464,Döbrentei tér,1016,CSF00105,,ojz`H}tfsBAVGTKNgFdFKFaBn@QBQGMQGY?[DYvHyTJQPIP@NJJRDZT`L,1,stop-area,False,[],OTHER,"{'colors': ['FF9900', 'FFD800', '000000', '009EE3']}",,
BKK_CSF00102,BKK:BKK_CSF00102,47.492492,19.042355,Szarvas tér,1013,CSF00102,,a{z`HygfsBPDLLHTBXCXITMLQDOEOMGUCYBYFUNMNE,1,stop-area,False,[],OTHER,"{'colors': ['000000', '009EE3']}",,
BKK_CS007885,BKK:BKK_CS007885,47.497476,19.049623,Dorottya utca (Vörösmarty tér M),1051,CS007885,,ez{`HgugsBPDLLHT@XAXITMLQDQEMMIUCYBYHULMPE,1,stop-area,False,[],OTHER,{'colors': ['009EE3']},,
BKK_008750,BKK:BKK_008750,47.505696,19.039323,Batthyány tér M+H,1011,008750,-176,509167,0,,True,"['BKK_3190', 'BKK_3410', 'BKK_N3190']",TRAM,"{'colors': ['FF9900', 'FFD800']}",BKK_CSF00065,TRAM
BKK_009629,BKK:BKK_009629,47.505588,19.039284,Batthyány tér M+H,1011,009629,1,510879,0,,True,['BKK_9900'],NIGHTBUS,{'colors': ['000000']},BKK_CSF00065,BUS
BKK_071659,BKK:BKK_071659,47.509906,19.05504,Nyugati pályaudvar M,1055,071659,-174,630769,0,,True,"['BKK_0090', 'BKK_N1090']",BUS,"{'colors': ['009EE3', 'FF9900']}",BKK_CSF00936,BUS
BKK_071927,BKK:BKK_071927,47.50602,19.038049,Batthyány tér M+H,1011,071927,-163,631301,0,,True,[],BUS,{'colors': ['777777']},BKK_CSF00065,BUS
BKK_005510017_0,BKK:BKK_005510017,47.50023,19.083872,Budapest-Keleti,1087,,,,0,,False,"['BKK_S60', 'BKK_S80', 'BKK_G10', 'BKK_G60', 'BKK_Z60', 'BKK_EC', 'BKK_EN', 'BKK_Gy', 'BKK_IC', 'BKK_IR85', 'BKK_IR87', 'BKK_Sz', 'BKK_rjx']",OTHER,{'colors': ['2E5EA8']},BKK_005510017,RAIL
BKK_056234,BKK:BKK_056234,47.500485,19.081704,Keleti pályaudvar,1087,056234,56,599947,0,,True,[],M4,"{'colors': ['4CA22F'], 'type': 'PRIORITY', 'image': 'stop-icon-M4'}",BKK_CSF01131,SUBWAY
BKK_056233,BKK:BKK_056233,47.500116,19.080722,Keleti pályaudvar,1076,056233,-127,599945,0,,True,['BKK_5400'],M4,"{'colors': ['4CA22F'], 'type': 'PRIORITY', 'image': 'stop-icon-M4'}",BKK_CSF01131,SUBWAY
BKK_042790,BKK:BKK_042790,47.510421,19.091707,Stefánia út,1146,042790,167,567291,0,,True,[],BUS,{'colors': ['777777']},BKK_CS042790,BUS
BKK_090482,BKK:BKK_090482,47.507822,19.087004,Ötvenhatosok tere,1146,090482,-137,661647,0,,True,"['BKK_4740', 'BKK_4750', 'BKK_9790']",TROLLEYBUS,"{'colors': ['000000', 'E41F18']}",BKK_CS090482,TROLLEYBUS
BKK_075001,BKK:BKK_075001,47.502941,19.076408,Rottenbiller utca / István utca,1077,075001,148,637413,0,,True,['BKK_MUZ3'],BUS,{'colors': ['EE7203']},BKK_CSF01122,BUS
BKK_F00941,BKK:BKK_F00941,47.506101,19.054854,Báthory utca / Bajcsy-Zsilinszky út,1054,F00941,-172,3173,0,,True,"['BKK_0090', 'BKK_4720', 'BKK_4760', 'BKK_9140', 'BKK_9141', 'BKK_9310', 'BKK_9500', 'BKK_9501']",TROLLEYBUS-BUS,"{'colors': ['000000', '009EE3', 'E41F18']}",BKK_CSF00940,TROLLEYBUS
BKK_F00940,BKK:BKK_F00940,47.507189,19.05573,Báthory utca / Bajcsy-Zsilinszky út,1065,F00940,32,3171,0,,True,"['BKK_0090', 'BKK_4720', 'BKK_4760', 'BKK_9140', 'BKK_9141', 'BKK_9310', 'BKK_9500', 'BKK_9501']",TROLLEYBUS-BUS,"{'colors': ['000000', '009EE3', 'E41F18']}",BKK_CSF00940,TROLLEYBUS
BKK_F00945,BKK:BKK_F00945,47.500363,19.055901,Bajcsy-Zsilinszky út M,1061,F00945,-134,3181,0,,True,"['BKK_1050', 'BKK_2100', 'BKK_2102', 'BKK_9340', 'BKK_9790', 'BKK_9791']",BUS,"{'colors': ['000000', '009EE3']}",BKK_CSF00945,BUS
BKK_F00943,BKK:BKK_F00943,47.502881,19.054734,Arany János utca M,1054,F00943,-179,3177,0,,True,"['BKK_0090', 'BKK_4720', 'BKK_N1090', 'BKK_9140', 'BKK_9141', 'BKK_9310', 'BKK_9500', 'BKK_9501']",TROLLEYBUS-BUS,"{'colors': ['000000', '009EE3', 'FF9900', 'E41F18']}",BKK_CSF00956,TROLLEYBUS
BKK_F00942,BKK:BKK_F00942,47.503304,19.055105,Arany János utca M,1066,F00942,1,3175,0,,True,"['BKK_0090', 'BKK_4720', 'BKK_9140', 'BKK_9141', 'BKK_9310', 'BKK_9500', 'BKK_9501']",TROLLEYBUS-BUS,"{'colors': ['000000', '009EE3', 'E41F18']}",BKK_CSF00956,TROLLEYBUS
BKK_F00939,BKK:BKK_F00939,47.506506,19.055716,Báthory utca / Bajcsy-Zsilinszky út,1065,F00939,135,3169,0,,True,"['BKK_4700', 'BKK_4780']",TROLLEYBUS,{'colors': ['E41F18']},BKK_CSF00940,TROLLEYBUS
BKK_F00938,BKK:BKK_F00938,47.507063,19.05427,Báthory utca / Bajcsy-Zsilinszky út,1054,F00938,-84,3167,0,,True,"['BKK_4700', 'BKK_4780']",TROLLEYBUS,{'colors': ['E41F18']},BKK_CSF00940,TROLLEYBUS
BKK_F00935,BKK:BKK_F00935,47.509896,19.056659,Nyugati pályaudvar M,1065,F00935,126,3161,0,,True,"['BKK_3040', 'BKK_3060', 'BKK_N3020']",TRAM,"{'colors': ['FF9900', 'FFD800']}",BKK_CSF00936,TRAM
BKK_F00934,BKK:BKK_F00934,47.509896,19.056394,Nyugati pályaudvar M,1065,F00934,132,3159,0,,True,"['BKK_VP06', 'BKK_9140', 'BKK_9141', 'BKK_9230', 'BKK_9310', 'BKK_9340', 'BKK_9500', 'BKK_9501']",BUS,"{'colors': ['000000', '009EE3']}",BKK_CSF00936,BUS
BKK_F00933,BKK:BKK_F00933,47.510274,19.056168,Nyugati pályaudvar M,1065,F00933,-55,3157,0,,True,"['BKK_3040', 'BKK_3060']",TRAM,{'colors': ['FFD800']},BKK_CSF00936,TRAM
BKK_F00969,BKK:BKK_F00969,47.508853,19.046584,"Országház, látogatóközpont",1055,F00969,-176,3229,0,,True,"['BKK_3020', 'BKK_3022', 'BKK_3023', 'BKK_3230', 'BKK_N3020']",TRAM,"{'colors': ['FF9900', 'FFD800']}",BKK_CSF00968,TRAM
BKK_F00968,BKK:BKK_F00968,47.50915,19.04677,"Országház, látogatóközpont",1055,F00968,-4,3227,0,,True,"['BKK_3020', 'BKK_3022', 'BKK_3023', 'BKK_3230', 'BKK_N3020']",TRAM,"{'colors': ['FF9900', 'FFD800']}",BKK_CSF00968,TRAM
BKK_F00959,BKK:BKK_F00959,47.505511,19.045769,Kossuth Lajos tér,1055,F00959,100,3209,0,,False,['BKK_5200'],M2,"{'colors': ['E41F18'], 'type': 'PRIORITY', 'image': 'stop-icon-M2'}",BKK_CS072858,SUBWAY
BKK_F00958,BKK:BKK_F00958,47.505808,19.044242,Kossuth Lajos tér,1055,F00958,-79,3207,0,,False,['BKK_5200'],M2,"{'colors': ['E41F18'], 'type': 'PRIORITY', 'image': 'stop-icon-M2'}",BKK_CS072858,SUBWAY
BKK_F00957,BKK:BKK_F00957,47.50367,19.054513,Arany János utca,1054,F00957,-180,3205,0,,True,['BKK_5300'],M3,"{'colors': ['005CA5'], 'type': 'PRIORITY', 'image': 'stop-icon-M3'}",BKK_CSF00956,SUBWAY
BKK_F00956,BKK:BKK_F00956,47.504733,19.054679,Arany János utca,1054,F00956,4,3203,0,,True,['BKK_5300'],M3,"{'colors': ['005CA5'], 'type': 'PRIORITY', 'image': 'stop-icon-M3'}",BKK_CSF00956,SUBWAY
BKK_F00974,BKK:BKK_F00974,47.500714,19.046173,Széchenyi István tér,1051,F00974,-24,3239,0,,True,"['BKK_3020', 'BKK_3022', 'BKK_3023', 'BKK_3230', 'BKK_N3020']",TRAM,"{'colors': ['FF9900', 'FFD800']}",BKK_CSF00974,TRAM
BKK_F00973,BKK:BKK_F00973,47.50066,19.04608,Széchenyi István tér,1051,F00973,158,3237,0,,True,"['BKK_3020', 'BKK_3022', 'BKK_3023', 'BKK_3230', 'BKK_N3020']",TRAM,"{'colors': ['FF9900', 'FFD800']}",BKK_CSF00974,TRAM
BKK_F00972,BKK:BKK_F00972,47.505679,19.047288,Kossuth Lajos tér M,1054,F00972,72,3235,0,,True,"['BKK_3020', 'BKK_3022', 'BKK_3023', 'BKK_3230', 'BKK_N3020']",TRAM,"{'colors': ['FF9900', 'FFD800']}",BKK_CS072858,TRAM
BKK_F00971,BKK:BKK_F00971,47.505732,19.046836,Kossuth Lajos tér M,1055,F00971,-99,3233,0,,True,"['BKK_3020', 'BKK_3022', 'BKK_3023', 'BKK_3230', 'BKK_N3020']",TRAM,"{'colors': ['FF9900', 'FFD800']}",BKK_CS072858,TRAM
BKK_F00970,BKK:BKK_F00970,47.505966,19.050925,Kossuth Lajos tér M,1054,F00970,,3231,0,,True,"['BKK_4700', 'BKK_4780']",TROLLEYBUS,{'colors': ['E41F18']},BKK_CS072858,TROLLEYBUS
BKK_F00991,BKK:BKK_F00991,47.508817,19.049518,Markó utca,1055,F00991,-167,3273,0,,True,['BKK_0150'],BUS,{'colors': ['009EE3']},BKK_CSF00990,BUS
BKK_F00990,BKK:BKK_F00990,47.509123,19.051164,Markó utca,1055,F00990,11,3271,0,,True,['BKK_0150'],BUS,{'colors': ['009EE3']},BKK_CSF00990,BUS
BKK_007979,BKK:BKK_007979,47.507404,19.066482,Vörösmarty utca M,1064,007979,-135,507677,0,,True,"['BKK_1050', 'BKK_2100', 'BKK_2102', 'BKK_9790', 'BKK_9791']",BUS,"{'colors': ['000000', '009EE3']}",BKK_CS007980,BUS
BKK_007980,BKK:BKK_007980,47.507413,19.066787,Vörösmarty utca M,1064,007980,45,507679,0,,True,"['BKK_1050', 'BKK_2100', 'BKK_2102', 'BKK_MUZ3', 'BKK_9790', 'BKK_9791']",BUS,"{'colors': ['000000', '009EE3', 'EE7203']}",BKK_CS007980,BUS
BKK_007950,BKK:BKK_007950,47.501104,19.082712,Keleti pályaudvar M,1076,007950,-117,507645,0,,True,"['BKK_4790', 'BKK_1100', 'BKK_1120', 'BKK_N4769']",TROLLEYBUS-BUS,"{'colors': ['009EE3', 'E41F18', 'FF9900']}",BKK_CSF01131,TROLLEYBUS
BKK_09001187,BKK:BKK_09001,47.506776,19.039318,Batthyány tér,1011,09001,,,0,merged,False,['BKK_H5'],H5,"{'colors': ['8A236C'], 'image': 'stop-icon-H5'}",BKK_09001,SUBURBAN_RAILWAY
BKK_067592,BKK:BKK_067592,47.505902,19.039002,Batthyány tér M+H,1011,067592,147,622661,0,,False,[],BUS,{'colors': ['777777']},BKK_CSF00065,BUS
BKK_005510033_0,BKK:BKK_005510033,47.51038,19.05715,Budapest-Nyugati,1062,,,,0,,False,"['BKK_S20', 'BKK_S21', 'BKK_S50', 'BKK_S70', 'BKK_S71', 'BKK_S72', 'BKK_G70', 'BKK_G71', 'BKK_Z50', 'BKK_Z72', 'BKK_IC', 'BKK_IR', 'BKK_Sz']",OTHER,{'colors': ['2E5EA8']},BKK_005510033,RAIL
BKK_050274,BKK:BKK_050274,47.50638,19.051004,Kossuth Lajos tér M (Szemere utca),1054,050274,-34,587987,0,,True,['BKK_0150'],BUS,{'colors': ['009EE3']},BKK_CS072858,BUS
BKK_F00072,BKK:BKK_F00072,47.501306,19.033896,Szentháromság tér,1014,F00072,-19,1439,0,,True,"['BKK_0160', 'BKK_0161', 'BKK_1160', 'BKK_MUZ6', 'BKK_9160']",BUS,"{'colors': ['000000', '009EE3', '824B00']}",BKK_CSF00071,BUS
BKK_F00071,BKK:BKK_F00071,47.501324,19.03371,Szentháromság tér,1014,F00071,135,1437,0,,True,"['BKK_0160', 'BKK_0161', 'BKK_1160', 'BKK_MUZ6', 'BKK_9160']",BUS,"{'colors': ['000000', '009EE3', '824B00']}",BKK_CSF00071,BUS
BKK_062517,BKK:BKK_062517,47.501817,19.075598,Rózsák tere,1074,062517,60,612517,0,,True,"['BKK_4730', 'BKK_4740', 'BKK_4760']",TROLLEYBUS,{'colors': ['E41F18']},BKK_CS062517,TROLLEYBUS
BKK_F01314,BKK:BKK_F01314,47.500277,19.080999,Keleti pályaudvar M,1076,F01314,-125,3919,0,,True,"['BKK_0050', 'BKK_0070', 'BKK_0075', 'BKK_0085', 'BKK_1070', 'BKK_1085', 'BKK_1100', 'BKK_1120', 'BKK_1335', 'BKK_9070', 'BKK_9730', 'BKK_9731']",BUS,"{'colors': ['000000', '009EE3']}",BKK_CSF01131,BUS
BKK_F00045,BKK:BKK_F00045,47.501307,19.036072,Donáti utca,1015,F00045,-40,1391,0,,True,"['BKK_0160', 'BKK_2160', 'BKK_9160']",BUS,"{'colors': ['000000', '009EE3']}",BKK_CSF00045,BUS
BKK_F00036,BKK:BKK_F00036,47.507773,19.033443,Fazekas utca,1027,F00036,-87,1373,0,,True,"['BKK_0390', 'BKK_9900']",BUS,"{'colors': ['000000', '009EE3']}",BKK_CSF00034,BUS
BKK_F00035,BKK:BKK_F00035,47.507989,19.034133,Fazekas utca,1027,F00035,-174,1371,0,,True,"['BKK_0110', 'BKK_1110']",BUS,{'colors': ['009EE3']},BKK_CSF00034,BUS
BKK_F00034,BKK:BKK_F00034,47.508268,19.034372,Fazekas utca,1027,F00034,7,1369,0,,True,"['BKK_0110', 'BKK_1110']",BUS,{'colors': ['009EE3']},BKK_CSF00034,BUS
BKK_F00068,BKK:BKK_F00068,47.506738,19.034794,Mária tér,1015,F00068,101,1431,0,,True,"['BKK_0390', 'BKK_9900']",BUS,"{'colors': ['000000', '009EE3']}",BKK_CSF00068,BUS
BKK_F00067,BKK:BKK_F00067,47.505876,19.039005,Batthyány tér M+H,1011,F00067,,1429,0,,True,['BKK_0390'],BUS,{'colors': ['009EE3']},BKK_CSF00065,BUS
BKK_F00065,BKK:BKK_F00065,47.507423,19.03927,Batthyány tér M+H (Bem rakpart),1011,F00065,-1,1425,0,,True,[],BUS,{'colors': ['777777']},BKK_CSF00065,BUS
BKK_F00064,BKK:BKK_F00064,47.506613,19.038872,Batthyány tér M+H,1011,F00066,,1423,0,merged,True,"['BKK_0110', 'BKK_1110']",BUS,{'colors': ['009EE3']},BKK_MERGED_F00066,BUS
BKK_F00063,BKK:BKK_F00063,47.506826,19.038103,Batthyány tér,1011,F00063,117,1421,0,,False,['BKK_5200'],M2,"{'colors': ['E41F18'], 'type': 'PRIORITY', 'image': 'stop-icon-M2'}",BKK_CSF00065,SUBWAY
BKK_F00062,BKK:BKK_F00062,47.507412,19.036739,Batthyány tér,1011,F00062,-63,1419,0,,False,['BKK_5200'],M2,"{'colors': ['E41F18'], 'type': 'PRIORITY', 'image': 'stop-icon-M2'}",BKK_CSF00065,SUBWAY
BKK_F00059,BKK:BKK_F00059,47.505885,19.038023,Batthyány tér M+H,1011,F00059,171,1415,0,,True,"['BKK_N1090', 'BKK_9900']",BUS,"{'colors': ['000000', 'FF9900']}",BKK_CSF00065,BUS
BKK_F00057,BKK:BKK_F00057,47.506002,19.039456,Batthyány tér M+H,1011,F00057,-6,1413,0,,True,"['BKK_3190', 'BKK_3410', 'BKK_N3190']",TRAM,"{'colors': ['FF9900', 'FFD800']}",BKK_CSF00065,TRAM
BKK_F00056,BKK:BKK_F00056,47.501764,19.039029,Halász utca,1011,F00056,166,1411,0,,True,['BKK_9900'],NIGHTBUS,{'colors': ['000000']},BKK_CSF00053,BUS
BKK_F00053,BKK:BKK_F00053,47.502448,19.039759,Halász utca,1011,F00053,-14,1405,0,,True,['BKK_9900'],NIGHTBUS,{'colors': ['000000']},BKK_CSF00053,BUS
BKK_F00052,BKK:BKK_F00052,47.501784,19.040028,Halász utca,1011,F00052,-9,1403,0,,True,"['BKK_3190', 'BKK_3410', 'BKK_N3190']",TRAM,"{'colors': ['FF9900', 'FFD800']}",BKK_CSF00053,TRAM
BKK_F00051,BKK:BKK_F00051,47.50226,19.039815,Halász utca,1011,F00051,172,1401,0,,True,"['BKK_3190', 'BKK_3410', 'BKK_N3190']",TRAM,"{'colors': ['FF9900', 'FFD800']}",BKK_CSF00053,TRAM
BKK_F00194,BKK:BKK_F00194,47.510238,19.034451,Horvát utca,1027,F00194,138,1683,0,,True,"['BKK_0110', 'BKK_1110']",BUS,{'colors': ['009EE3']},BKK_CS112336,BUS
BKK_F02707,BKK:BKK_F02707,47.510251,19.083886,Dvořák sétány,1146,F02707,-124,6671,0,,True,['BKK_4700'],TROLLEYBUS,{'colors': ['E41F18']},BKK_CSF02708,TROLLEYBUS
BKK_F02708,BKK:BKK_F02708,47.510377,19.084497,Dvořák sétány,1146,F02708,59,6673,0,,True,['BKK_4700'],TROLLEYBUS,{'colors': ['E41F18']},BKK_CSF02708,TROLLEYBUS
BKK_F02709,BKK:BKK_F02709,47.507147,19.086459,Ötvenhatosok tere,1146,F02709,56,6675,0,,True,"['BKK_4740', 'BKK_4750', 'BKK_9790']",TROLLEYBUS,"{'colors': ['000000', 'E41F18']}",BKK_CS090482,TROLLEYBUS
BKK_F02720,BKK:BKK_F02720,47.507936,19.09526,Stefánia út / Thököly út,1143,F02720,144,6697,0,,True,['BKK_4750'],TROLLEYBUS,{'colors': ['E41F18']},BKK_CSF02718,TROLLEYBUS
BKK_F02722,BKK:BKK_F02722,47.508124,19.094266,Stefánia út / Thököly út,1146,F02722,-139,6701,0,,True,"['BKK_0050', 'BKK_0070', 'BKK_0075', 'BKK_0085', 'BKK_1085', 'BKK_1100', 'BKK_1120', 'BKK_1335', 'BKK_9070', 'BKK_9730']",BUS,"{'colors': ['000000', '009EE3']}",BKK_CSF02718,BUS
BKK_F02723,BKK:BKK_F02723,47.5087,19.095394,Stefánia út / Thököly út,1146,F02723,35,6703,0,,True,"['BKK_0050', 'BKK_0070', 'BKK_0075', 'BKK_0085', 'BKK_1085', 'BKK_1100', 'BKK_1120', 'BKK_1335', 'BKK_9070', 'BKK_9071', 'BKK_9730', 'BKK_9731', 'BKK_9790']",BUS,"{'colors': ['000000', '009EE3']}",BKK_CSF02718,BUS
BKK_F02716,BKK:BKK_F02716,47.505814,19.091582,Cházár András utca,1146,F02716,44,6689,0,,True,"['BKK_0050', 'BKK_0070', 'BKK_1100', 'BKK_1120', 'BKK_9070', 'BKK_9071', 'BKK_9730', 'BKK_9731']",BUS,"{'colors': ['000000', '009EE3']}",BKK_CSF02717,BUS
BKK_F02717,BKK:BKK_F02717,47.505868,19.09133,Cházár András utca,1146,F02717,-139,6691,0,,True,"['BKK_0050', 'BKK_0070', 'BKK_1100', 'BKK_1120', 'BKK_9070', 'BKK_9730']",BUS,"{'colors': ['000000', '009EE3']}",BKK_CSF02717,BUS
BKK_F02718,BKK:BKK_F02718,47.508835,19.094491,Stefánia út / Thököly út,1146,F02718,-45,6693,0,,True,"['BKK_4720', 'BKK_4750', 'BKK_9790']",TROLLEYBUS,"{'colors': ['000000', 'E41F18']}",BKK_CSF02718,TROLLEYBUS
BKK_F02711,BKK:BKK_F02711,47.510033,19.089926,Zichy Géza utca,1146,F02711,-132,6679,0,,True,"['BKK_4740', 'BKK_4750', 'BKK_9790']",TROLLEYBUS,"{'colors': ['000000', 'E41F18']}",BKK_CSF02712,TROLLEYBUS
BKK_F02712,BKK:BKK_F02712,47.510392,19.090737,Zichy Géza utca,1146,F02712,41,6681,0,,True,"['BKK_4740', 'BKK_4750', 'BKK_9790']",TROLLEYBUS,"{'colors': ['000000', 'E41F18']}",BKK_CSF02712,TROLLEYBUS
BKK_F01173,BKK:BKK_F01173,47.500288,19.072996,Szövetség utca,1074,F01173,49,3637,0,,True,['BKK_4740'],TROLLEYBUS,{'colors': ['E41F18']},BKK_CSF01173,TROLLEYBUS
BKK_F01172,BKK:BKK_F01172,47.500188,19.079221,Munkás utca,1076,F01172,-29,3635,0,,True,"['BKK_4730', 'BKK_4760', 'BKK_4790', 'BKK_N4769']",TROLLEYBUS,"{'colors': ['E41F18', 'FF9900']}",BKK_CSF01172,TROLLEYBUS
BKK_F01160,BKK:BKK_F01160,47.500853,19.082181,Keleti pályaudvar M,1076,F01160,-123,3611,0,,True,"['BKK_0205', 'BKK_0300', 'BKK_0301', 'BKK_2300']",BUS,{'colors': ['009EE3']},BKK_CSF01131,BUS
BKK_F01117,BKK:BKK_F01117,47.502825,19.073555,Wesselényi utca / Izabella utca,1077,F01117,143,3525,0,,True,"['BKK_4730', 'BKK_4760']",TROLLEYBUS,{'colors': ['E41F18']},BKK_CSF01117,TROLLEYBUS
BKK_F01115,BKK:BKK_F01115,47.500928,19.069307,Wesselényi utca / Erzsébet körút,1074,F01115,-129,3521,0,,True,['BKK_4740'],TROLLEYBUS,{'colors': ['E41F18']},BKK_CSF01115,TROLLEYBUS
BKK_F01114,BKK:BKK_F01114,47.500046,19.068895,Wesselényi utca / Erzsébet körút,1073,F01114,152,3519,0,,True,"['BKK_VP06', 'BKK_9230']",BUS,"{'colors': ['000000', '009EE3']}",BKK_CSF01115,BUS
BKK_F01113,BKK:BKK_F01113,47.500199,19.069147,Wesselényi utca / Erzsébet körút,1073,F01113,-25,3517,0,,True,"['BKK_VP06', 'BKK_9230']",BUS,"{'colors': ['000000', '009EE3']}",BKK_CSF01115,BUS
BKK_F01111,BKK:BKK_F01111,47.500325,19.068948,Wesselényi utca / Erzsébet körút,1073,F01111,-26,3513,0,,True,"['BKK_3040', 'BKK_3060']",TRAM,{'colors': ['FFD800']},BKK_CSF01115,TRAM
BKK_F01119,BKK:BKK_F01119,47.503877,19.072507,Dob utca,1077,F01119,-40,3529,0,,True,"['BKK_4730', 'BKK_4760', 'BKK_N4769']",TROLLEYBUS,"{'colors': ['E41F18', 'FF9900']}",BKK_CSF01119,TROLLEYBUS
BKK_F01118,BKK:BKK_F01118,47.502546,19.072161,Almássy tér,1074,F01118,-129,3527,0,,True,['BKK_4740'],TROLLEYBUS,{'colors': ['E41F18']},BKK_CSF01118,TROLLEYBUS
BKK_F01139,BKK:BKK_F01139,47.507922,19.083646,Dembinszky utca,1071,F01139,-112,3569,0,,True,['BKK_4740'],TROLLEYBUS,{'colors': ['E41F18']},BKK_CSF01138,TROLLEYBUS
BKK_F01138,BKK:BKK_F01138,47.508344,19.083752,Dembinszky utca,1071,F01138,143,3567,0,,True,"['BKK_0300', 'BKK_0301', 'BKK_4750', 'BKK_4790', 'BKK_2300', 'BKK_N4769', 'BKK_9790']",TROLLEYBUS-BUS,"{'colors': ['000000', '009EE3', 'E41F18', 'FF9900']}",BKK_CSF01138,TROLLEYBUS
BKK_F01137,BKK:BKK_F01137,47.509397,19.083009,Damjanich utca / Dózsa György út,1146,F01137,-37,3565,0,,True,"['BKK_0300', 'BKK_0301', 'BKK_4750', 'BKK_4790', 'BKK_2300', 'BKK_9790']",TROLLEYBUS-BUS,"{'colors': ['000000', '009EE3', 'E41F18']}",BKK_CSF01134,TROLLEYBUS
BKK_F01136,BKK:BKK_F01136,47.50911,19.081655,Damjanich utca / Dózsa György út,1071,F01136,56,3563,0,,True,['BKK_4700'],TROLLEYBUS,{'colors': ['E41F18']},BKK_CSF01134,TROLLEYBUS
BKK_F01135,BKK:BKK_F01135,47.509433,19.082014,Damjanich utca / Dózsa György út,1071,F01135,-124,3561,0,,True,['BKK_4700'],TROLLEYBUS,{'colors': ['E41F18']},BKK_CSF01134,TROLLEYBUS
BKK_F01134,BKK:BKK_F01134,47.509712,19.0822,Damjanich utca / Dózsa György út,1071,F01134,142,3559,0,,True,"['BKK_0300', 'BKK_0301', 'BKK_4750', 'BKK_4790', 'BKK_2300', 'BKK_MUZ3', 'BKK_N4769', 'BKK_9790']",TROLLEYBUS-BUS,"{'colors': ['000000', '009EE3', 'EE7203', 'E41F18', 'FF9900']}",BKK_CSF01134,TROLLEYBUS
BKK_F01131,BKK:BKK_F01131,47.501824,19.082036,Keleti pályaudvar M (Garay utca),1076,F01131,76,3553,0,,True,['BKK_4780'],TROLLEYBUS,{'colors': ['E41F18']},BKK_CSF01131,TROLLEYBUS
BKK_F01130,BKK:BKK_F01130,47.504532,19.081201,Nefelejcs utca / István utca,1076,F01130,57,3551,0,,True,"['BKK_4740', 'BKK_4790']",TROLLEYBUS,{'colors': ['E41F18']},BKK_CSF01126,TROLLEYBUS
BKK_F01128,BKK:BKK_F01128,47.505925,19.079211,Nefelejcs utca,1078,F01128,-124,3547,0,,True,['BKK_4740'],TROLLEYBUS,{'colors': ['E41F18']},BKK_CSF01126,TROLLEYBUS
BKK_F01127,BKK:BKK_F01127,47.504514,19.078414,Bethlen Gábor tér,1077,F01127,149,3545,0,,True,['BKK_4780'],TROLLEYBUS,{'colors': ['E41F18']},BKK_CSF01127,TROLLEYBUS
BKK_F01126,BKK:BKK_F01126,47.50768,19.078176,Nefelejcs utca / Damjanich utca,1071,F01126,-124,3543,0,,True,['BKK_4700'],TROLLEYBUS,{'colors': ['E41F18']},BKK_CSF01126,TROLLEYBUS
BKK_F01125,BKK:BKK_F01125,47.507429,19.07803,Nefelejcs utca / Damjanich utca,1071,F01125,55,3541,0,,True,['BKK_4700'],TROLLEYBUS,{'colors': ['E41F18']},BKK_CSF01126,TROLLEYBUS
BKK_F01124,BKK:BKK_F01124,47.507177,19.077751,Nefelejcs utca / Damjanich utca,1078,F01124,-34,3539,0,,True,['BKK_4780'],TROLLEYBUS,{'colors': ['E41F18']},BKK_CSF01126,TROLLEYBUS
BKK_F01123,BKK:BKK_F01123,47.506422,19.076609,Bethlen Gábor utca,1071,F01123,133,3537,0,,True,['BKK_4780'],TROLLEYBUS,{'colors': ['E41F18']},BKK_CSF01123,TROLLEYBUS
BKK_F01122,BKK:BKK_F01122,47.50304,19.076581,Rottenbiller utca / István utca,1077,F01122,-32,3535,0,,True,"['BKK_4730', 'BKK_4760', 'BKK_N4769']",TROLLEYBUS,"{'colors': ['E41F18', 'FF9900']}",BKK_CSF01122,TROLLEYBUS
BKK_F01121,BKK:BKK_F01121,47.502824,19.077404,Rottenbiller utca / István utca,1077,F01121,56,3533,0,,True,"['BKK_4740', 'BKK_4790']",TROLLEYBUS,{'colors': ['E41F18']},BKK_CSF01122,TROLLEYBUS
BKK_F01120,BKK:BKK_F01120,47.503733,19.074444,Rózsa utca,1077,F01120,-125,3531,0,,True,"['BKK_4730', 'BKK_4740', 'BKK_4760', 'BKK_N4769']",TROLLEYBUS,"{'colors': ['E41F18', 'FF9900']}",BKK_CSF01120,TROLLEYBUS
BKK_F01129,BKK:BKK_F01129,47.504532,19.080365,Nefelejcs utca / István utca,1078,F01129,-33,3549,0,,True,['BKK_4780'],TROLLEYBUS,{'colors': ['E41F18']},BKK_CSF01126,TROLLEYBUS
BKK_F01159,BKK:BKK_F01159,47.500466,19.081955,Keleti pályaudvar M,1087,F01159,58,3609,0,,True,"['BKK_0050', 'BKK_0070', 'BKK_0075', 'BKK_0085', 'BKK_0205', 'BKK_0300', 'BKK_0301', 'BKK_1085', 'BKK_1100', 'BKK_1120', 'BKK_1335', 'BKK_2300', 'BKK_9070', 'BKK_9071', 'BKK_9730', 'BKK_9731']",BUS,"{'colors': ['000000', '009EE3']}",BKK_CSF01131,BUS
BKK_F01154,BKK:BKK_F01154,47.501571,19.084836,Keleti pályaudvar M,1087,F01154,45,3599,0,,True,[],BUS,{'colors': ['777777']},BKK_CSF01131,BUS
BKK_F01151,BKK:BKK_F01151,47.501875,19.090278,Verseny utca,1076,F01151,-108,3593,0,,True,['BKK_0300'],BUS,{'colors': ['009EE3']},BKK_CSF01151,BUS
BKK_F01150,BKK:BKK_F01150,47.501758,19.090822,Verseny utca,1087,F01150,90,3591,0,,True,['BKK_0300'],BUS,{'colors': ['009EE3']},BKK_CSF01151,BUS
BKK_F01149,BKK:BKK_F01149,47.503495,19.089549,Reiner Frigyes park,1146,F01149,-31,3589,0,,True,['BKK_0300'],BUS,{'colors': ['009EE3']},BKK_CSF01144,BUS
BKK_F01146,BKK:BKK_F01146,47.503468,19.088169,Reiner Frigyes park,1076,F01146,62,3583,0,,True,"['BKK_0050', 'BKK_0070', 'BKK_0075', 'BKK_0085', 'BKK_0301', 'BKK_1085', 'BKK_1100', 'BKK_1120', 'BKK_1335', 'BKK_2300', 'BKK_9070', 'BKK_9071', 'BKK_9730', 'BKK_9731']",BUS,"{'colors': ['000000', '009EE3']}",BKK_CSF01144,BUS
BKK_F01145,BKK:BKK_F01145,47.504241,19.089298,Reiner Frigyes park,1146,F01145,-138,3581,0,,True,"['BKK_0050', 'BKK_0070', 'BKK_0075', 'BKK_0085', 'BKK_1085', 'BKK_1100', 'BKK_1120', 'BKK_1335', 'BKK_9070', 'BKK_9730']",BUS,"{'colors': ['000000', '009EE3']}",BKK_CSF01144,BUS
BKK_F01144,BKK:BKK_F01144,47.50426,19.088368,Reiner Frigyes park,1071,F01144,142,3579,0,,True,"['BKK_0300', 'BKK_0301', 'BKK_2300']",BUS,{'colors': ['009EE3']},BKK_CSF01144,BUS
BKK_F01143,BKK:BKK_F01143,47.503703,19.085939,Cserhát utca,1078,F01143,-132,3577,0,,True,"['BKK_4790', 'BKK_N4769']",TROLLEYBUS,"{'colors': ['E41F18', 'FF9900']}",BKK_CSF01143,TROLLEYBUS
BKK_F01142,BKK:BKK_F01142,47.506257,19.084998,Ötvenhatosok tere (István utca),1078,F01142,57,3575,0,,True,"['BKK_4740', 'BKK_4790']",TROLLEYBUS,{'colors': ['E41F18']},BKK_CS090482,TROLLEYBUS
BKK_F01141,BKK:BKK_F01141,47.506239,19.086166,Ötvenhatosok tere,1071,F01141,147,3573,0,,True,"['BKK_0300', 'BKK_0301', 'BKK_4790', 'BKK_2300', 'BKK_N4769']",TROLLEYBUS-BUS,"{'colors': ['009EE3', 'E41F18', 'FF9900']}",BKK_CS090482,TROLLEYBUS
BKK_F01140,BKK:BKK_F01140,47.50641,19.08622,Ötvenhatosok tere,1146,F01140,-36,3571,0,,True,"['BKK_0300', 'BKK_0301', 'BKK_2300']",BUS,{'colors': ['009EE3']},BKK_CS090482,BUS
BKK_F01047,BKK:BKK_F01047,47.507843,19.076026,Reformáció park,1071,F01047,-31,3385,0,,True,"['BKK_4700', 'BKK_4780']",TROLLEYBUS,{'colors': ['E41F18']},BKK_CSF01046,TROLLEYBUS
BKK_F01046,BKK:BKK_F01046,47.508185,19.075442,Reformáció park,1071,F01046,113,3383,0,,True,['BKK_4700'],TROLLEYBUS,{'colors': ['E41F18']},BKK_CSF01046,TROLLEYBUS
BKK_F01045,BKK:BKK_F01045,47.507304,19.072123,Lövölde tér,1068,F01045,-132,3381,0,,True,"['BKK_4700', 'BKK_4780']",TROLLEYBUS,{'colors': ['E41F18']},BKK_CSF01045,TROLLEYBUS
BKK_F01044,BKK:BKK_F01044,47.506899,19.071765,Lövölde tér,1077,F01044,48,3379,0,,True,"['BKK_4700', 'BKK_4780']",TROLLEYBUS,{'colors': ['E41F18']},BKK_CSF01045,TROLLEYBUS
BKK_F01043,BKK:BKK_F01043,47.505236,19.06903,Izabella utca / Király utca,1077,F01043,48,3377,0,,True,"['BKK_4700', 'BKK_4780']",TROLLEYBUS,{'colors': ['E41F18']},BKK_CSF01042,TROLLEYBUS
BKK_F01042,BKK:BKK_F01042,47.506099,19.069534,Izabella utca / Király utca,1068,F01042,-43,3375,0,,True,"['BKK_4730', 'BKK_4760', 'BKK_N4769']",TROLLEYBUS,"{'colors': ['E41F18', 'FF9900']}",BKK_CSF01042,TROLLEYBUS
BKK_F01041,BKK:BKK_F01041,47.505425,19.069083,Izabella utca / Király utca,1068,F01041,-131,3373,0,,True,"['BKK_4700', 'BKK_4780']",TROLLEYBUS,{'colors': ['E41F18']},BKK_CSF01042,TROLLEYBUS
BKK_F01040,BKK:BKK_F01040,47.505497,19.070171,Izabella utca / Király utca,1077,F01040,138,3371,0,,True,"['BKK_4730', 'BKK_4760']",TROLLEYBUS,{'colors': ['E41F18']},BKK_CSF01042,TROLLEYBUS
BKK_F01079,BKK:BKK_F01079,47.502197,19.058761,Opera,1061,F01079,-135,3449,0,,False,['BKK_5100'],M1,"{'colors': ['FFD800'], 'type': 'PRIORITY', 'image': 'stop-icon-M1'}",BKK_CSF01076,SUBWAY
BKK_F01078,BKK:BKK_F01078,47.502611,19.059671,Opera M,1066,F01078,46,3447,0,,True,"['BKK_1050', 'BKK_2100', 'BKK_2102', 'BKK_MUZ3', 'BKK_9340', 'BKK_9790', 'BKK_9791']",BUS,"{'colors': ['000000', '009EE3', 'EE7203']}",BKK_CSF01076,BUS
BKK_F01077,BKK:BKK_F01077,47.503169,19.060096,Opera M,1066,F01077,-136,3445,0,,True,"['BKK_1050', 'BKK_2100', 'BKK_2102', 'BKK_9340', 'BKK_9790', 'BKK_9791']",BUS,"{'colors': ['000000', '009EE3']}",BKK_CSF01076,BUS
BKK_F01076,BKK:BKK_F01076,47.503402,19.060269,Opera M,1065,F01076,136,3443,0,,True,"['BKK_4700', 'BKK_4780']",TROLLEYBUS,{'colors': ['E41F18']},BKK_CSF01076,TROLLEYBUS
BKK_F01075,BKK:BKK_F01075,47.503158,19.060918,Opera M,1065,F01075,-43,3441,0,,True,"['BKK_4700', 'BKK_4780']",TROLLEYBUS,{'colors': ['E41F18']},BKK_CSF01076,TROLLEYBUS
BKK_F01068,BKK:BKK_F01068,47.510112,19.062341,Ferdinánd híd (Izabella utca),1064,F01068,-54,3427,0,,True,"['BKK_4730', 'BKK_4760']",TROLLEYBUS,{'colors': ['E41F18']},BKK_CSF01069,TROLLEYBUS
BKK_F01097,BKK:BKK_F01097,47.509823,19.070465,Kodály körönd M,1062,F01097,46,3485,0,,True,"['BKK_1050', 'BKK_2100', 'BKK_2102', 'BKK_9790', 'BKK_9791']",BUS,"{'colors': ['000000', '009EE3']}",BKK_CSF01097,BUS
BKK_F01096,BKK:BKK_F01096,47.509261,19.069544,Kodály körönd,1062,F01096,45,3483,0,,False,['BKK_5100'],M1,"{'colors': ['FFD800'], 'type': 'PRIORITY', 'image': 'stop-icon-M1'}",BKK_CSF01097,SUBWAY
BKK_F01095,BKK:BKK_F01095,47.509175,19.069116,Kodály körönd,1063,F01095,-135,3481,0,,False,['BKK_5100'],M1,"{'colors': ['FFD800'], 'type': 'PRIORITY', 'image': 'stop-icon-M1'}",BKK_CSF01097,SUBWAY
BKK_F01094,BKK:BKK_F01094,47.509508,19.069576,Kodály körönd M,1062,F01094,-133,3479,0,,True,"['BKK_1050', 'BKK_2100', 'BKK_2102', 'BKK_9790', 'BKK_9791']",BUS,"{'colors': ['000000', '009EE3']}",BKK_CSF01097,BUS
BKK_F01093,BKK:BKK_F01093,47.507238,19.066529,Vörösmarty utca,1064,F01093,45,3477,0,,False,['BKK_5100'],M1,"{'colors': ['FFD800'], 'type': 'PRIORITY', 'image': 'stop-icon-M1'}",BKK_CS007980,SUBWAY
BKK_F01092,BKK:BKK_F01092,47.507149,19.066118,Vörösmarty utca,1064,F01092,-135,3475,0,,False,['BKK_5100'],M1,"{'colors': ['FFD800'], 'type': 'PRIORITY', 'image': 'stop-icon-M1'}",BKK_CS007980,SUBWAY
BKK_F01091,BKK:BKK_F01091,47.507449,19.067716,Andrássy út (Vörösmarty utca M),1064,F01091,-43,3473,0,,True,"['BKK_4730', 'BKK_4760', 'BKK_N4769']",TROLLEYBUS,"{'colors': ['E41F18', 'FF9900']}",BKK_CSF01090,TROLLEYBUS
BKK_F01089,BKK:BKK_F01089,47.504158,19.061968,Oktogon M,1061,F01089,47,3469,0,,True,"['BKK_1050', 'BKK_2100', 'BKK_2102', 'BKK_MUZ3', 'BKK_9340', 'BKK_9790', 'BKK_9791']",BUS,"{'colors': ['000000', '009EE3', 'EE7203']}",BKK_CSF01083,BUS
BKK_F01088,BKK:BKK_F01088,47.504796,19.062525,Oktogon M,1061,F01088,,3467,0,,True,"['BKK_1050', 'BKK_2100', 'BKK_2102', 'BKK_9340', 'BKK_9790', 'BKK_9791']",BUS,"{'colors': ['000000', '009EE3']}",BKK_CSF01083,BUS
BKK_F01087,BKK:BKK_F01087,47.504634,19.063946,Oktogon M,1066,F01087,142,3465,0,,True,"['BKK_VP06', 'BKK_9230']",BUS,"{'colors': ['000000', '009EE3']}",BKK_CSF01083,BUS
BKK_F01086,BKK:BKK_F01086,47.505023,19.063233,Oktogon,1066,F01086,45,3463,0,,False,['BKK_5100'],M1,"{'colors': ['FFD800'], 'type': 'PRIORITY', 'image': 'stop-icon-M1'}",BKK_CSF01083,SUBWAY
BKK_F01085,BKK:BKK_F01085,47.504923,19.062823,Oktogon,1061,F01085,-132,3461,0,,False,['BKK_5100'],M1,"{'colors': ['FFD800'], 'type': 'PRIORITY', 'image': 'stop-icon-M1'}",BKK_CSF01083,SUBWAY
BKK_F01084,BKK:BKK_F01084,47.506334,19.061597,Aradi utca (Oktogon M),1066,F01084,136,3459,0,,True,"['BKK_VP06', 'BKK_9230', 'BKK_9340']",BUS,"{'colors': ['000000', '009EE3']}",BKK_CSF01084,BUS
BKK_F01083,BKK:BKK_F01083,47.505947,19.062619,Oktogon M,1067,F01083,-39,3457,0,,True,"['BKK_VP06', 'BKK_9230', 'BKK_9340']",BUS,"{'colors': ['000000', '009EE3']}",BKK_CSF01083,BUS
BKK_F01082,BKK:BKK_F01082,47.505939,19.062406,Oktogon M,1066,F01082,-44,3455,0,,True,"['BKK_3040', 'BKK_3060']",TRAM,{'colors': ['FFD800']},BKK_CSF01083,TRAM
BKK_F01081,BKK:BKK_F01081,47.505561,19.062871,Oktogon M,1066,F01081,141,3453,0,,True,"['BKK_3040', 'BKK_3060', 'BKK_N3020']",TRAM,"{'colors': ['FF9900', 'FFD800']}",BKK_CSF01083,TRAM
BKK_F01080,BKK:BKK_F01080,47.502305,19.059161,Opera,1061,F01080,45,3451,0,,False,['BKK_5100'],M1,"{'colors': ['FFD800'], 'type': 'PRIORITY', 'image': 'stop-icon-M1'}",BKK_CSF01076,SUBWAY
BKK_F01090,BKK:BKK_F01090,47.508294,19.066363,Andrássy út (Vörösmarty utca M),1064,F01090,137,3471,0,,True,"['BKK_4730', 'BKK_4760']",TROLLEYBUS,{'colors': ['E41F18']},BKK_CSF01090,TROLLEYBUS
BKK_099343,BKK:BKK_099343,47.506003,19.049645,Kossuth Lajos tér M,1054,099343,-124,679367,0,,True,['BKK_0150'],BUS,{'colors': ['009EE3']},BKK_CS072858,BUS
BKK_F01039,BKK:BKK_F01039,47.502808,19.066042,Király utca / Erzsébet körút,1073,F01039,142,3369,0,,True,"['BKK_VP06', 'BKK_9230']",BUS,"{'colors': ['000000', '009EE3']}",BKK_CSF01034,BUS
BKK_F01038,BKK:BKK_F01038,47.503033,19.066188,Király utca / Erzsébet körút,1073,F01038,-36,3367,0,,True,"['BKK_VP06', 'BKK_9230']",BUS,"{'colors': ['000000', '009EE3']}",BKK_CSF01034,BUS
BKK_F01037,BKK:BKK_F01037,47.502781,19.066202,Király utca / Erzsébet körút,1073,F01037,144,3365,0,,True,"['BKK_3040', 'BKK_3060', 'BKK_N3020']",TRAM,"{'colors': ['FF9900', 'FFD800']}",BKK_CSF01034,TRAM
BKK_F01036,BKK:BKK_F01036,47.503123,19.065419,Király utca / Erzsébet körút,1073,F01036,56,3363,0,,True,"['BKK_4700', 'BKK_4780']",TROLLEYBUS,{'colors': ['E41F18']},BKK_CSF01034,TROLLEYBUS
BKK_F01035,BKK:BKK_F01035,47.503249,19.06583,Király utca / Erzsébet körút,1073,F01035,-36,3361,0,,True,"['BKK_3040', 'BKK_3060']",TRAM,{'colors': ['FFD800']},BKK_CSF01034,TRAM
BKK_F01034,BKK:BKK_F01034,47.503573,19.06595,Király utca / Erzsébet körút,1068,F01034,-133,3359,0,,True,"['BKK_4700', 'BKK_4780']",TROLLEYBUS,{'colors': ['E41F18']},BKK_CSF01034,TROLLEYBUS
BKK_F01033,BKK:BKK_F01033,47.502152,19.062963,Akácfa utca,1061,F01033,-127,3357,0,,True,"['BKK_4700', 'BKK_4780']",TROLLEYBUS,{'colors': ['E41F18']},BKK_CSF01033,TROLLEYBUS
BKK_F01032,BKK:BKK_F01032,47.502054,19.062989,Akácfa utca,1072,F01032,55,3355,0,,True,"['BKK_4700', 'BKK_4780']",TROLLEYBUS,{'colors': ['E41F18']},BKK_CSF01033,TROLLEYBUS
BKK_F01030,BKK:BKK_F01030,47.509123,19.058664,Nyugati pályaudvar M (Podmaniczky utca),1067,F01030,48,3351,0,,True,"['BKK_4720', 'BKK_4760']",TROLLEYBUS,{'colors': ['E41F18']},BKK_CSF00936,TROLLEYBUS
BKK_F01029,BKK:BKK_F01029,47.509806,19.057151,Nyugati pályaudvar M,1062,F01029,-28,3349,0,,True,"['BKK_VP06', 'BKK_0090', 'BKK_4730', 'BKK_9140', 'BKK_9141', 'BKK_9230', 'BKK_9312', 'BKK_9310', 'BKK_9340', 'BKK_9500', 'BKK_9501']",TROLLEYBUS-BUS,"{'colors': ['000000', '009EE3', 'E41F18']}",BKK_CSF00936,TROLLEYBUS
BKK_F01022,BKK:BKK_F01022,47.505148,19.052398,Hold utca (Belvárosi piac),1054,F01022,-8,3335,0,,True,['BKK_0150'],BUS,{'colors': ['009EE3']},BKK_CSF01022,BUS
BKK_F01021,BKK:BKK_F01021,47.502261,19.051986,Hercegprímás utca,1051,F01021,81,3333,0,,True,['BKK_0150'],BUS,{'colors': ['009EE3']},BKK_CSF01021,BUS
BKK_F01020,BKK:BKK_F01020,47.503142,19.048522,Széchenyi utca,1054,F01020,172,3331,0,,True,['BKK_0150'],BUS,{'colors': ['009EE3']},BKK_CSF01020,BUS
BKK_118346,BKK:BKK_118346,47.509276,19.058597,Nyugati pályaudvar M (Podmaniczky utca),1062,F01031,-133,717373,0,merged,True,"['BKK_4720', 'BKK_4730', 'BKK_4760']",TROLLEYBUS,{'colors': ['E41F18']},BKK_MERGED_F01031,TROLLEYBUS
BKK_011582,BKK:BKK_011582,47.501778,19.088408,Verseny utca,1087,011582,90,512647,0,,True,[],BUS,{'colors': ['777777']},BKK_CSF01151,BUS
BKK_072858,BKK:BKK_072858,47.507531,19.051097,Kossuth Lajos tér M (Alkotmány utca),1055,072858,-99,633159,0,,False,[],BUS,{'colors': ['777777']},BKK_CS072858,BUS
BKK_008238,BKK:BKK_008238,47.500543,19.04669,Széchenyi István tér,1051,008238,-104,508169,0,,True,"['BKK_0160', 'BKK_1050', 'BKK_1780', 'BKK_2100', 'BKK_2102', 'BKK_2160', 'BKK_9160', 'BKK_9900']",BUS,"{'colors': ['000000', '009EE3']}",BKK_CSF00974,BUS
BKK_083392,BKK:BKK_083392,47.50579,19.064036,Oktogon M,1067,083392,-116,647481,0,,False,[],BUS,{'colors': ['777777']},BKK_CSF01083,BUS
BKK_083393,BKK:BKK_083393,47.505756,19.064228,Oktogon M,1067,083393,49,647483,0,,False,[],BUS,{'colors': ['777777']},BKK_CSF01083,BUS
BKK_048460,BKK:BKK_048460,47.50445,19.045129,Kossuth Lajos tér M (Széchenyi rakpart),1054,048460,,584293,0,,False,[],OTHER,{'colors': ['777777']},BKK_CS072858,
BKK_048505,BKK:BKK_048505,47.500687,19.054694,Szent István Bazilika,1051,048505,180,584381,0,,True,"['BKK_0090', 'BKK_4720', 'BKK_9140', 'BKK_9141', 'BKK_9310', 'BKK_9500', 'BKK_9501']",TROLLEYBUS-BUS,"{'colors': ['000000', '009EE3', 'E41F18']}",BKK_CS048505,TROLLEYBUS
BKK_048506,BKK:BKK_048506,47.500273,19.055025,Szent István Bazilika,1065,048506,-6,584383,0,,True,"['BKK_0090', 'BKK_4720', 'BKK_9140', 'BKK_9141', 'BKK_9310', 'BKK_9500', 'BKK_9501']",TROLLEYBUS-BUS,"{'colors': ['000000', '009EE3', 'E41F18']}",BKK_CS048505,TROLLEYBUS
BKK_062942,BKK:BKK_062942,47.501636,19.077828,Péterfy Sándor utca,1077,062942,-31,613367,0,,True,"['BKK_4730', 'BKK_4760', 'BKK_4790', 'BKK_N4769']",TROLLEYBUS,"{'colors': ['E41F18', 'FF9900']}",BKK_CS062942,TROLLEYBUS
BKK_009025,BKK:BKK_009025,47.505192,19.057853,Zichy Jenő utca,1065,009025,-45,509713,0,,True,"['BKK_4700', 'BKK_4780']",TROLLEYBUS,{'colors': ['E41F18']},BKK_CS009026,TROLLEYBUS
BKK_009026,BKK:BKK_009026,47.505246,19.057588,Zichy Jenő utca,1065,009026,136,509715,0,,True,"['BKK_4700', 'BKK_4780']",TROLLEYBUS,{'colors': ['E41F18']},BKK_CS009026,TROLLEYBUS
BKK_117920,BKK:BKK_117920,47.499352,19.087437,"Kerepesi út,MOL-töltőállomás",1087,117920,47,716521,0,,True,[],BUS,{'colors': ['777777']},BKK_CS117920,BUS
BKK_008782,BKK:BKK_008782,47.496844,19.069066,Blaha Lujza tér M,1072,008782,-114,509229,0,,True,['BKK_0075'],BUS,{'colors': ['009EE3']},BKK_CSF01116,BUS
BKK_056427,BKK:BKK_056427,47.497853,19.054189,Deák Ferenc tér M,1051,056427,-118,600333,0,,True,['BKK_1780'],BUS,{'colors': ['009EE3']},BKK_CS011732,BUS
BKK_009753,BKK:BKK_009753,47.495999,19.071283,Blaha Lujza tér M (Népszínház utca),1081,009753,-90,511097,0,,True,[],TRAM,{'colors': ['FFD800']},BKK_CSF01116,TRAM
BKK_009702,BKK:BKK_009702,47.492954,19.087179,Magdolna utca,1086,009702,144,511003,0,,True,[],BUS,{'colors': ['777777']},BKK_CS009702,BUS
BKK_009647,BKK:BKK_009647,47.491893,19.087286,Baross kocsiszín (Magdolna kapu),1086,009647,,510915,0,,True,['BKK_N3020'],TRAM,{'colors': ['FF9900']},BKK_CS009647,TRAM
BKK_083601,BKK:BKK_083601,47.490065,19.047301,Rudas Gyógyfürdő,1013,083601,-37,647899,0,,True,[],BUS,{'colors': ['777777']},BKK_CS072934,BUS
BKK_009675,BKK:BKK_009675,47.497665,19.041541,Clark Ádám tér,1013,009675,-19,510961,0,,True,"['BKK_3190', 'BKK_3410', 'BKK_N3190']",TRAM,"{'colors': ['FF9900', 'FFD800']}",BKK_CS049785,TRAM
BKK_009676,BKK:BKK_009676,47.497359,19.041594,Clark Ádám tér,1013,009676,161,510963,0,,True,"['BKK_3190', 'BKK_3410', 'BKK_N3190']",TRAM,"{'colors': ['FF9900', 'FFD800']}",BKK_CS049785,TRAM
BKK_072934,BKK:BKK_072934,47.49011,19.047195,Rudas Gyógyfürdő,1013,072934,-37,633305,0,,True,"['BKK_3170', 'BKK_3190', 'BKK_3410', 'BKK_3560', 'BKK_3561', 'BKK_N3180', 'BKK_N3190']",TRAM,"{'colors': ['FF9900', 'FFD800']}",BKK_CS072934,TRAM
BKK_072935,BKK:BKK_072935,47.489824,19.047383,Rudas Gyógyfürdő,1013,072935,143,633307,0,,True,"['BKK_3170', 'BKK_3190', 'BKK_3410', 'BKK_3560', 'BKK_3561', 'BKK_N3180', 'BKK_N3190']",TRAM,"{'colors': ['FF9900', 'FFD800']}",BKK_CS072934,TRAM
BKK_082622,BKK:BKK_082622,47.498114,19.034494,Tábor utca,1012,082622,140,645945,0,,True,"['BKK_0160', 'BKK_2160', 'BKK_9160']",BUS,"{'colors': ['000000', '009EE3']}",BKK_CS082622,BUS
BKK_044301,BKK:BKK_044301,47.489477,19.090708,Orczy tér (Baross kocsiszín),1086,044301,96,570085,0,,True,['BKK_3281'],TRAM,{'colors': ['FFD800']},BKK_CSF01217,TRAM
BKK_008694,BKK:BKK_008694,47.486933,19.067178,Köztelek utca,1092,008694,127,509055,0,,True,"['BKK_0150', 'BKK_9140', 'BKK_9141', 'BKK_9340', 'BKK_9500', 'BKK_9501', 'BKK_9790', 'BKK_9791']",BUS,"{'colors': ['000000', '009EE3']}",BKK_CS008694,BUS
BKK_044260,BKK:BKK_044260,47.488604,19.064073,Kálvin tér M (Szabó Ervin tér),1085,044260,-58,570003,0,,False,[],OTHER,{'colors': ['777777']},BKK_CS089515,
BKK_056227,BKK:BKK_056227,47.488903,19.061022,Kálvin tér,1092,056227,-127,599933,0,,True,['BKK_5400'],M4,"{'colors': ['4CA22F'], 'type': 'PRIORITY', 'image': 'stop-icon-M4'}",BKK_CS089515,SUBWAY
BKK_056226,BKK:BKK_056226,47.486169,19.058009,Fővám tér,1093,056226,26,599931,0,,True,['BKK_5400'],M4,"{'colors': ['4CA22F'], 'type': 'PRIORITY', 'image': 'stop-icon-M4'}",BKK_CSF00922,SUBWAY
BKK_056229,BKK:BKK_056229,47.492725,19.071361,Rákóczi tér,1085,056229,-102,599937,0,,True,['BKK_5400'],M4,"{'colors': ['4CA22F'], 'type': 'PRIORITY', 'image': 'stop-icon-M4'}",BKK_CSF01200,SUBWAY
BKK_056228,BKK:BKK_056228,47.489245,19.061938,Kálvin tér,1092,056228,53,599935,0,,True,['BKK_5400'],M4,"{'colors': ['4CA22F'], 'type': 'PRIORITY', 'image': 'stop-icon-M4'}",BKK_CS089515,SUBWAY
BKK_056225,BKK:BKK_056225,47.485792,19.057571,Fővám tér,1093,056225,-156,599929,0,,True,['BKK_5400'],M4,"{'colors': ['4CA22F'], 'type': 'PRIORITY', 'image': 'stop-icon-M4'}",BKK_CSF00922,SUBWAY
BKK_056230,BKK:BKK_056230,47.49276,19.072489,Rákóczi tér,1084,056230,78,599939,0,,True,['BKK_5400'],M4,"{'colors': ['4CA22F'], 'type': 'PRIORITY', 'image': 'stop-icon-M4'}",BKK_CSF01200,SUBWAY
BKK_056232,BKK:BKK_056232,47.496078,19.077707,II. János Pál pápa tér,1081,056232,24,599943,0,,True,['BKK_5400'],M4,"{'colors': ['4CA22F'], 'type': 'PRIORITY', 'image': 'stop-icon-M4'}",BKK_CS056232,SUBWAY
BKK_056231,BKK:BKK_056231,47.495593,19.077229,II. János Pál pápa tér,1081,056231,-158,599941,0,,True,['BKK_5400'],M4,"{'colors': ['4CA22F'], 'type': 'PRIORITY', 'image': 'stop-icon-M4'}",BKK_CS056232,SUBWAY
BKK_F00924,BKK:BKK_F00924,47.493105,19.050566,Petőfi tér,1052,F00924,164,3139,0,,True,['BKK_0150'],BUS,{'colors': ['009EE3']},BKK_CSF00924,BUS
BKK_F00923,BKK:BKK_F00923,47.486952,19.057611,Fővám tér M,1093,F00923,30,3137,0,,True,"['BKK_0150', 'BKK_4830', 'BKK_9340', 'BKK_9790', 'BKK_9791']",TROLLEYBUS-BUS,"{'colors': ['000000', '009EE3', 'E41F18']}",BKK_CSF00922,TROLLEYBUS
BKK_F00922,BKK:BKK_F00922,47.487186,19.05781,Fővám tér M,1093,F00922,51,3135,0,,True,"['BKK_3470', 'BKK_3480', 'BKK_3490', 'BKK_N3190']",TRAM,"{'colors': ['FF9900', 'FFD800']}",BKK_CSF00922,TRAM
BKK_F00921,BKK:BKK_F00921,47.486916,19.05724,Fővám tér M,1093,F00921,-129,3133,0,,True,"['BKK_3470', 'BKK_3480', 'BKK_3490', 'BKK_N3190']",TRAM,"{'colors': ['FF9900', 'FFD800']}",BKK_CSF00922,TRAM
BKK_F00920,BKK:BKK_F00920,47.487051,19.0572,Fővám tér M,1056,F00920,-129,3131,0,,False,[],BUS,{'colors': ['777777']},BKK_CSF00922,BUS
BKK_F00919,BKK:BKK_F00919,47.486862,19.056602,Fővám tér M,1056,F00919,141,3129,0,,True,"['BKK_3020', 'BKK_3022', 'BKK_3023', 'BKK_3230', 'BKK_N3020']",TRAM,"{'colors': ['FF9900', 'FFD800']}",BKK_CSF00922,TRAM
BKK_F00918,BKK:BKK_F00918,47.486754,19.056841,Fővám tér M,1093,F00918,-38,3127,0,,True,"['BKK_3020', 'BKK_3022', 'BKK_3023', 'BKK_3230', 'BKK_N3020']",TRAM,"{'colors': ['FF9900', 'FFD800']}",BKK_CSF00922,TRAM
BKK_F00947,BKK:BKK_F00947,47.496855,19.056976,Deák Ferenc tér M,1075,F00947,-63,3185,0,,True,[],BUS,{'colors': ['777777']},BKK_CS011732,BUS
BKK_F00946,BKK:BKK_F00946,47.497089,19.05541,Deák Ferenc tér M,1052,F00946,132,3183,0,,True,"['BKK_0090', 'BKK_4720', 'BKK_N1090']",TROLLEYBUS-BUS,"{'colors': ['009EE3', 'FF9900', 'E41F18']}",BKK_CS011732,TROLLEYBUS
BKK_F00944,BKK:BKK_F00944,47.499895,19.055596,Bajcsy-Zsilinszky út M,1061,F00944,26,3179,0,,True,"['BKK_1050', 'BKK_2100', 'BKK_2102', 'BKK_MUZ3', 'BKK_9340', 'BKK_9790', 'BKK_9791']",BUS,"{'colors': ['000000', '009EE3', 'EE7203']}",BKK_CSF00945,BUS
BKK_F00963,BKK:BKK_F00963,47.497728,19.054142,Deák Ferenc tér,1051,F00963,70,3217,0,,False,['BKK_5100'],M1,"{'colors': ['FFD800'], 'type': 'PRIORITY', 'image': 'stop-icon-M1'}",BKK_CS011732,SUBWAY
BKK_F00962,BKK:BKK_F00962,47.49772,19.05367,Deák Ferenc tér,1051,F00962,-102,3215,0,,False,['BKK_5100'],M1,"{'colors': ['FFD800'], 'type': 'PRIORITY', 'image': 'stop-icon-M1'}",BKK_CS011732,SUBWAY
BKK_F00961,BKK:BKK_F00961,47.497593,19.053857,Deák Ferenc tér,1051,F00961,165,3213,0,,False,['BKK_5200'],M2,"{'colors': ['E41F18'], 'type': 'PRIORITY', 'image': 'stop-icon-M2'}",BKK_CS011732,SUBWAY
BKK_F00960,BKK:BKK_F00960,47.498843,19.053605,Deák Ferenc tér,1051,F00960,-13,3211,0,,False,['BKK_5200'],M2,"{'colors': ['E41F18'], 'type': 'PRIORITY', 'image': 'stop-icon-M2'}",BKK_CS011732,SUBWAY
BKK_F00967,BKK:BKK_F00967,47.495614,19.048322,Vigadó tér,1051,F00967,159,3225,0,,True,"['BKK_3020', 'BKK_3022', 'BKK_3023', 'BKK_3230', 'BKK_N3020']",TRAM,"{'colors': ['FF9900', 'FFD800']}",BKK_CSF00967,TRAM
BKK_F00966,BKK:BKK_F00966,47.495569,19.048402,Vigadó tér,1051,F00966,-21,3223,0,,True,"['BKK_3020', 'BKK_3022', 'BKK_3023', 'BKK_3230', 'BKK_N3020']",TRAM,"{'colors': ['FF9900', 'FFD800']}",BKK_CSF00967,TRAM
BKK_F00965,BKK:BKK_F00965,47.496737,19.050593,Vörösmarty tér,1051,F00965,57,3221,0,,False,['BKK_5100'],M1,"{'colors': ['FFD800'], 'type': 'PRIORITY', 'image': 'stop-icon-M1'}",BKK_CSF00965,SUBWAY
BKK_F00964,BKK:BKK_F00964,47.496671,19.050193,Vörösmarty tér,1051,F00964,-124,3219,0,,False,[],M1,"{'colors': ['FFD800'], 'type': 'PRIORITY', 'image': 'stop-icon-M1'}",BKK_CSF00965,SUBWAY
BKK_F00952,BKK:BKK_F00952,47.492808,19.056091,Ferenciek tere,1053,F00952,-32,3195,0,,True,['BKK_5300'],M3,"{'colors': ['005CA5'], 'type': 'PRIORITY', 'image': 'stop-icon-M3'}",BKK_CSF00983,SUBWAY
BKK_F00951,BKK:BKK_F00951,47.492925,19.055343,Ferenciek tere M,1053,F00951,58,3193,0,,True,"['BKK_0050', 'BKK_0070', 'BKK_0085', 'BKK_1070', 'BKK_1085', 'BKK_1100', 'BKK_1120', 'BKK_1335', 'BKK_9070', 'BKK_9080', 'BKK_9081', 'BKK_9560', 'BKK_9730']",BUS,"{'colors': ['000000', '009EE3']}",BKK_CSF00983,BUS
BKK_F00950,BKK:BKK_F00950,47.496945,19.055715,Deák Ferenc tér M,1052,F00950,139,3191,0,,True,"['BKK_1005', 'BKK_9090', 'BKK_9091', 'BKK_9140', 'BKK_9141', 'BKK_9160', 'BKK_9310', 'BKK_9311', 'BKK_9340', 'BKK_9500', 'BKK_9501', 'BKK_9790', 'BKK_9791', 'BKK_9900']",BUS,"{'colors': ['000000', '009EE3']}",BKK_CS011732,BUS
BKK_F00955,BKK:BKK_F00955,47.497591,19.054525,Deák Ferenc tér,1051,F00955,,3201,0,,True,['BKK_5300'],M3,"{'colors': ['005CA5'], 'type': 'PRIORITY', 'image': 'stop-icon-M3'}",BKK_CS011732,SUBWAY
BKK_F00954,BKK:BKK_F00954,47.49866,19.054545,Deák Ferenc tér,1051,F00954,-4,3199,0,,True,['BKK_5300'],M3,"{'colors': ['005CA5'], 'type': 'PRIORITY', 'image': 'stop-icon-M3'}",BKK_CS011732,SUBWAY
BKK_F00953,BKK:BKK_F00953,47.49182,19.056789,Ferenciek tere,1053,F00953,145,3197,0,,True,['BKK_5300'],M3,"{'colors': ['005CA5'], 'type': 'PRIORITY', 'image': 'stop-icon-M3'}",BKK_CSF00983,SUBWAY
BKK_F00985,BKK:BKK_F00985,47.497701,19.053353,Deák Ferenc tér M,1051,F00985,-111,3261,0,,True,"['BKK_0150', 'BKK_0160', 'BKK_9160', 'BKK_9900']",BUS,"{'colors': ['000000', '009EE3']}",BKK_CS011732,BUS
BKK_F00983,BKK:BKK_F00983,47.492934,19.056007,Ferenciek tere M,1053,F00983,-40,3257,0,,True,['BKK_0150'],BUS,{'colors': ['009EE3']},BKK_CSF00983,BUS
BKK_F00982,BKK:BKK_F00982,47.495371,19.052782,Szervita tér,1052,F00982,-41,3255,0,,True,['BKK_0150'],BUS,{'colors': ['009EE3']},BKK_CSF00982,BUS
BKK_F00981,BKK:BKK_F00981,47.498978,19.050884,Hild tér,1051,F00981,-70,3253,0,,True,"['BKK_0160', 'BKK_1050', 'BKK_1780', 'BKK_2100', 'BKK_2102', 'BKK_2160', 'BKK_9160', 'BKK_9900']",BUS,"{'colors': ['000000', '009EE3']}",BKK_CSF00981,BUS
BKK_F00980,BKK:BKK_F00980,47.498645,19.051535,Erzsébet tér,1051,F00980,-8,3251,0,,True,['BKK_0150'],BUS,{'colors': ['009EE3']},BKK_CSF00980,BUS
BKK_F00986,BKK:BKK_F00986,47.499679,19.049464,Zrínyi utca,1051,F00986,171,3263,0,,True,['BKK_0150'],BUS,{'colors': ['009EE3']},BKK_CSF00986,BUS
BKK_F00979,BKK:BKK_F00979,47.498726,19.050168,József nádor tér,1051,F00979,82,3249,0,,True,"['BKK_0160', 'BKK_1050', 'BKK_1780', 'BKK_2100', 'BKK_2102', 'BKK_2160', 'BKK_9160', 'BKK_9900']",BUS,"{'colors': ['000000', '009EE3']}",BKK_CSF00979,BUS
BKK_F00976,BKK:BKK_F00976,47.497944,19.047022,Eötvös tér,1051,F00976,-175,3243,0,,True,"['BKK_3020', 'BKK_3022', 'BKK_3023', 'BKK_3230', 'BKK_N3020']",TRAM,"{'colors': ['FF9900', 'FFD800']}",BKK_CSF00976,TRAM
BKK_F00975,BKK:BKK_F00975,47.497827,19.047168,Eötvös tér,1051,F00975,-15,3241,0,,True,"['BKK_3020', 'BKK_3022', 'BKK_3023', 'BKK_3230', 'BKK_N3020']",TRAM,"{'colors': ['FF9900', 'FFD800']}",BKK_CSF00976,TRAM
BKK_016729,BKK:BKK_016729,47.493472,19.032796,Naphegy tér,1016,016729,-74,516671,0,,True,[],BUS,{'colors': ['009EE3']},BKK_CS016729,BUS
BKK_089517,BKK:BKK_089517,47.494145,19.060146,Astoria M,1088,F01013,-20,659717,0,merged,True,"['BKK_0090', 'BKK_0150', 'BKK_3470', 'BKK_3480', 'BKK_3490', 'BKK_4720', 'BKK_MUZ3', 'BKK_N3190']",TRAM-TROLLEYBUS-BUS,"{'colors': ['FF9900', 'FFD800', '009EE3', 'EE7203', 'E41F18']}",BKK_MERGED_F01013,BUS
BKK_089515,BKK:BKK_089515,47.490613,19.061858,Kálvin tér M,1088,089515,-21,659713,0,,True,[],BUS,{'colors': ['009EE3']},BKK_CS089515,BUS
BKK_F00996,BKK:BKK_F00996,47.499841,19.055259,Bajcsy-Zsilinszky út,1061,F00996,-135,3283,0,,False,['BKK_5100'],M1,"{'colors': ['FFD800'], 'type': 'PRIORITY', 'image': 'stop-icon-M1'}",BKK_CSF00945,SUBWAY
BKK_F00999,BKK:BKK_F00999,47.490883,19.051614,Március 15. tér,1056,F00999,-29,3289,0,,True,"['BKK_3020', 'BKK_3022', 'BKK_3023', 'BKK_3230', 'BKK_N3020']",TRAM,"{'colors': ['FF9900', 'FFD800']}",BKK_CS062518,TRAM
BKK_F00997,BKK:BKK_F00997,47.499937,19.055655,Bajcsy-Zsilinszky út,1061,F00997,46,3285,0,,False,['BKK_5100'],M1,"{'colors': ['FFD800'], 'type': 'PRIORITY', 'image': 'stop-icon-M1'}",BKK_CSF00945,SUBWAY
BKK_007885,BKK:BKK_007885,47.497476,19.049623,Dorottya utca (Vörösmarty tér M),1051,007885,-168,507573,0,,True,['BKK_0150'],BUS,{'colors': ['009EE3']},BKK_CS007885,BUS
BKK_007884,BKK:BKK_007884,47.497413,19.055158,Deák Ferenc tér M,1052,007884,,507571,0,,True,"['BKK_3470', 'BKK_3480', 'BKK_3490', 'BKK_N3190']",TRAM,"{'colors': ['FF9900', 'FFD800']}",BKK_CS011732,TRAM
BKK_038717,BKK:BKK_038717,47.499032,19.05403,Deák Ferenc tér M,1051,038717,,560251,0,,True,"['BKK_0160', 'BKK_1050', 'BKK_1780', 'BKK_2100', 'BKK_2102', 'BKK_2160', 'BKK_9160', 'BKK_9900']",BUS,"{'colors': ['000000', '009EE3']}",BKK_CS011732,BUS
BKK_F00087,BKK:BKK_F00087,47.496899,19.032742,Krisztina tér,1013,F00087,-105,1469,0,,True,"['BKK_1050', 'BKK_1780', 'BKK_2100', 'BKK_2102']",BUS,{'colors': ['009EE3']},BKK_CSF00087,BUS
BKK_F00086,BKK:BKK_F00086,47.496621,19.032847,Krisztina tér,1013,F00086,-54,1467,0,,True,"['BKK_3170', 'BKK_3560', 'BKK_3561', 'BKK_N3180']",TRAM,"{'colors': ['FF9900', 'FFD800']}",BKK_CSF00087,TRAM
BKK_F00084,BKK:BKK_F00084,47.496567,19.034415,Alagút utca,1013,F00084,137,1463,0,,True,"['BKK_0050', 'BKK_9560']",BUS,"{'colors': ['000000', '009EE3']}",BKK_CSF00082,BUS
BKK_F00083,BKK:BKK_F00083,47.496899,19.033406,Krisztina tér,1013,F00083,73,1461,0,,True,"['BKK_0160', 'BKK_1050', 'BKK_1780', 'BKK_2100', 'BKK_2102', 'BKK_2160', 'BKK_9160']",BUS,"{'colors': ['000000', '009EE3']}",BKK_CSF00087,BUS
BKK_F00082,BKK:BKK_F00082,47.497853,19.032981,Alagút utca,1013,F00082,-44,1459,0,,True,"['BKK_0050', 'BKK_9560']",BUS,"{'colors': ['000000', '009EE3']}",BKK_CSF00082,BUS
BKK_F00081,BKK:BKK_F00081,47.493698,19.038463,Dózsa György tér,1016,F00081,-41,1457,0,,True,"['BKK_3170', 'BKK_3560', 'BKK_3561', 'BKK_N3180']",TRAM,"{'colors': ['FF9900', 'FFD800']}",BKK_CSF00077,TRAM
BKK_F00080,BKK:BKK_F00080,47.49377,19.038224,Dózsa György tér,1016,F00080,134,1455,0,,True,"['BKK_3170', 'BKK_3410', 'BKK_3560', 'BKK_3561', 'BKK_N3180']",TRAM,"{'colors': ['FF9900', 'FFD800']}",BKK_CSF00077,TRAM
BKK_048288,BKK:BKK_048288,47.489425,19.061208,Kálvin tér M,1053,048288,-152,583949,0,,False,[],BUS,{'colors': ['777777']},BKK_CS089515,BUS
BKK_F00079,BKK:BKK_F00079,47.49386,19.037494,Dózsa György tér,1016,F00079,132,1453,0,,True,"['BKK_0050', 'BKK_9560']",BUS,"{'colors': ['000000', '009EE3']}",BKK_CSF00077,BUS
BKK_F00078,BKK:BKK_F00078,47.494426,19.037932,Dózsa György tér,1013,F00078,-52,1451,0,,True,"['BKK_0050', 'BKK_9560']",BUS,"{'colors': ['000000', '009EE3']}",BKK_CSF00077,BUS
BKK_F00077,BKK:BKK_F00077,47.494732,19.03772,Dózsa György tér,1013,F00077,-88,1449,0,,True,"['BKK_0160', 'BKK_2160', 'BKK_9160']",BUS,"{'colors': ['000000', '009EE3']}",BKK_CSF00077,BUS
BKK_F00076,BKK:BKK_F00076,47.495182,19.038529,"Palota út, gyorslift",1013,F00076,137,1447,0,,True,"['BKK_0160', 'BKK_2160', 'BKK_9160']",BUS,"{'colors': ['000000', '009EE3']}",BKK_CSF00076,BUS
BKK_F00075,BKK:BKK_F00075,47.498599,19.036073,Dísz tér,1014,F00075,-142,1445,0,,True,"['BKK_0160', 'BKK_2160', 'BKK_9160']",BUS,"{'colors': ['000000', '009EE3']}",BKK_CSF00073,BUS
BKK_F00074,BKK:BKK_F00074,47.49895,19.036113,Dísz tér,1014,F00074,141,1443,0,,True,"['BKK_0161', 'BKK_1160']",BUS,"{'colors': ['009EE3', '824B00']}",BKK_CSF00073,BUS
BKK_F00073,BKK:BKK_F00073,47.499787,19.03533,Dísz tér,1014,F00073,-44,1441,0,,True,"['BKK_0160', 'BKK_0161', 'BKK_1160', 'BKK_MUZ6', 'BKK_9160']",BUS,"{'colors': ['000000', '009EE3', '824B00']}",BKK_CSF00073,BUS
BKK_062521,BKK:BKK_062521,47.486357,19.06885,Corvin-negyed M,1085,062521,-63,612525,0,,True,"['BKK_MUZ3', 'BKK_9140', 'BKK_9141', 'BKK_9500', 'BKK_9501']",BUS,"{'colors': ['000000', 'EE7203']}",BKK_CSF01190,BUS
BKK_062518,BKK:BKK_062518,47.491881,19.051747,Március 15. tér,1052,062518,-113,612519,0,,True,"['BKK_0050', 'BKK_0070', 'BKK_0085', 'BKK_1070', 'BKK_1085', 'BKK_1100', 'BKK_1120', 'BKK_1335', 'BKK_9070', 'BKK_9080', 'BKK_9560', 'BKK_9730', 'BKK_9731']",BUS,"{'colors': ['000000', '009EE3']}",BKK_CS062518,BUS
BKK_F01311,BKK:BKK_F01311,47.499315,19.082552,Keleti pályaudvar M,1087,F01311,,3913,0,,True,"['BKK_3230', 'BKK_3240', 'BKK_N3360']",TRAM,"{'colors': ['FF9900', 'FFD800']}",BKK_CSF01131,TRAM
BKK_F01310,BKK:BKK_F01310,47.496364,19.083399,Dologház utca,1081,F01310,-37,3911,0,,True,"['BKK_3230', 'BKK_3240', 'BKK_N3360']",TRAM,"{'colors': ['FF9900', 'FFD800']}",BKK_CSF01307,TRAM
BKK_F01303,BKK:BKK_F01303,47.494567,19.076855,II. János Pál pápa tér M,1081,F01303,153,3897,0,,True,['BKK_0990'],BUS,{'colors': ['009EE3']},BKK_CS056232,BUS
BKK_F01302,BKK:BKK_F01302,47.494099,19.077373,II. János Pál pápa tér M,1084,F01302,-29,3895,0,,True,['BKK_0990'],BUS,{'colors': ['009EE3']},BKK_CS056232,BUS
BKK_F01301,BKK:BKK_F01301,47.494666,19.077599,II. János Pál pápa tér M,1081,F01301,-72,3893,0,,True,"['BKK_3280', 'BKK_3281', 'BKK_3370', 'BKK_3371', 'BKK_3620', 'BKK_2175']",TRAM-BUS,"{'colors': ['FFD800', '009EE3']}",BKK_CS056232,TRAM
BKK_F01300,BKK:BKK_F01300,47.494819,19.07655,II. János Pál pápa tér M,1081,F01300,108,3891,0,,True,"['BKK_3280', 'BKK_3281', 'BKK_3370', 'BKK_3371', 'BKK_3620', 'BKK_2175', 'BKK_N3020']",TRAM-BUS,"{'colors': ['FF9900', 'FFD800', '009EE3']}",BKK_CS056232,TRAM
BKK_F01309,BKK:BKK_F01309,47.496445,19.08312,Dologház utca,1081,F01309,143,3909,0,,True,"['BKK_3230', 'BKK_3240', 'BKK_N3360']",TRAM,"{'colors': ['FF9900', 'FFD800']}",BKK_CSF01307,TRAM
BKK_F01308,BKK:BKK_F01308,47.496256,19.083731,Dologház utca,1081,F01308,-35,3907,0,,False,[],BUS,{'colors': ['777777']},BKK_CSF01307,BUS
BKK_F01307,BKK:BKK_F01307,47.496535,19.083187,Dologház utca,1081,F01307,143,3905,0,,True,['BKK_MUZ3'],BUS,{'colors': ['EE7203']},BKK_CSF01307,BUS
BKK_F00006,BKK:BKK_F00006,47.490088,19.036191,Sánc utca,1016,F00006,168,1313,0,,True,['BKK_1780'],BUS,{'colors': ['009EE3']},BKK_CSF00006,BUS
BKK_F01336,BKK:BKK_F01336,47.499683,19.082881,Keleti pályaudvar,1087,F01336,92,3963,0,,False,['BKK_5200'],M2,"{'colors': ['E41F18'], 'type': 'PRIORITY', 'image': 'stop-icon-M2'}",BKK_CSF01131,SUBWAY
BKK_F01335,BKK:BKK_F01335,47.499778,19.081282,Keleti pályaudvar,1087,F01335,-89,3961,0,,False,['BKK_5200'],M2,"{'colors': ['E41F18'], 'type': 'PRIORITY', 'image': 'stop-icon-M2'}",BKK_CSF01131,SUBWAY
BKK_F01334,BKK:BKK_F01334,47.488897,19.091276,Orczy út,1086,F01334,71,3959,0,,True,['BKK_4720'],TROLLEYBUS,{'colors': ['E41F18']},BKK_CSF01217,TROLLEYBUS
BKK_F01333,BKK:BKK_F01333,47.487152,19.089616,Kőris utca,1089,F01333,90,3957,0,,True,['BKK_0990'],BUS,{'colors': ['009EE3']},BKK_CS109634,BUS
BKK_F00001,BKK:BKK_F00001,47.486079,19.034561,Mihály utca,1118,F00001,-69,1303,0,,True,['BKK_0270'],BUS,{'colors': ['009EE3']},BKK_CSF00001,BUS
BKK_F01331,BKK:BKK_F01331,47.493549,19.082787,Teleki László tér,1086,F01331,-84,3953,0,,True,"['BKK_3280', 'BKK_3281', 'BKK_3370', 'BKK_3371', 'BKK_3620']",TRAM,{'colors': ['FFD800']},BKK_CSF01330,TRAM
BKK_F01330,BKK:BKK_F01330,47.493604,19.081884,Teleki László tér,1086,F01330,109,3951,0,,True,"['BKK_3280', 'BKK_3281', 'BKK_3370', 'BKK_3371', 'BKK_3620', 'BKK_N3020']",TRAM,"{'colors': ['FF9900', 'FFD800']}",BKK_CSF01330,TRAM
BKK_F00009,BKK:BKK_F00009,47.489425,19.035836,Sánc utca,1016,F00009,63,1319,0,,True,"['BKK_0085', 'BKK_0270', 'BKK_1085', 'BKK_1100', 'BKK_1120', 'BKK_9080', 'BKK_9081']",BUS,"{'colors': ['000000', '009EE3']}",BKK_CSF00006,BUS
BKK_F00008,BKK:BKK_F00008,47.489632,19.035717,Sánc utca,1016,F00008,-113,1317,0,,True,"['BKK_0085', 'BKK_1085', 'BKK_1100', 'BKK_1120', 'BKK_9080']",BUS,"{'colors': ['000000', '009EE3']}",BKK_CSF00006,BUS
BKK_F01339,BKK:BKK_F01339,47.485548,19.06593,Ráday utca,1092,F01339,-126,3969,0,,True,"['BKK_0150', 'BKK_4830']",TROLLEYBUS-BUS,"{'colors': ['009EE3', 'E41F18']}",BKK_CSF01339,TROLLEYBUS
BKK_F00007,BKK:BKK_F00007,47.489542,19.035491,Sánc utca,1016,F00007,79,1315,0,,True,['BKK_1780'],BUS,{'colors': ['009EE3']},BKK_CSF00006,BUS
BKK_F00012,BKK:BKK_F00012,47.485594,19.039551,Búsuló Juhász (Citadella),1118,F00012,-56,1325,0,,True,['BKK_0270'],BUS,{'colors': ['009EE3']},BKK_CSF00012,BUS
BKK_F00011,BKK:BKK_F00011,47.488238,19.037084,Szirtes út,1016,F00011,-137,1323,0,,True,['BKK_0270'],BUS,{'colors': ['009EE3']},BKK_CSF00011,BUS
BKK_F00010,BKK:BKK_F00010,47.487663,19.03646,Szirtes út,1016,F00010,49,1321,0,,True,['BKK_0270'],BUS,{'colors': ['009EE3']},BKK_CSF00011,BUS
BKK_F00049,BKK:BKK_F00049,47.497722,19.040644,Clark Ádám tér,1013,F00049,156,1397,0,,True,[],BUS,{'colors': ['777777']},BKK_CS049785,BUS
BKK_F00048,BKK:BKK_F00048,47.498195,19.040028,Clark Ádám tér,1013,F00048,74,1395,0,,True,"['BKK_0160', 'BKK_1050', 'BKK_1780', 'BKK_2100', 'BKK_2102', 'BKK_2160', 'BKK_9160']",BUS,"{'colors': ['000000', '009EE3']}",BKK_CS049785,BUS
BKK_F00047,BKK:BKK_F00047,47.498312,19.039816,Clark Ádám tér,1011,F00047,-125,1393,0,,True,"['BKK_0160', 'BKK_1050', 'BKK_1780', 'BKK_2100', 'BKK_2102', 'BKK_2160', 'BKK_9160']",BUS,"{'colors': ['000000', '009EE3']}",BKK_CS049785,BUS
BKK_F00037,BKK:BKK_F00037,47.493851,19.043373,Várkert Bazár,1013,F00037,-11,1375,0,,True,['BKK_N1090'],BUS,{'colors': ['FF9900']},BKK_CSF00037,BUS
BKK_F00050,BKK:BKK_F00050,47.497799,19.040811,Clark Ádám tér,1013,F00050,-3,1399,0,,True,['BKK_N1090'],BUS,{'colors': ['FF9900']},BKK_CS049785,BUS
BKK_109634,BKK:BKK_109634,47.487602,19.088343,Kőris utca,1089,109634,-35,699949,0,,True,"['BKK_4830', 'BKK_0990']",TROLLEYBUS-BUS,"{'colors': ['009EE3', 'E41F18']}",BKK_CS109634,TROLLEYBUS
BKK_109633,BKK:BKK_109633,47.486181,19.089231,Kőris utca (Korányi Sándor utca),1089,109633,152,699947,0,,True,['BKK_4830'],TROLLEYBUS,{'colors': ['E41F18']},BKK_CS109634,TROLLEYBUS
BKK_F00105,BKK:BKK_F00105,47.491737,19.043373,Döbrentei tér,1013,F00105,-54,1505,0,,True,"['BKK_3170', 'BKK_3560', 'BKK_3561', 'BKK_N3180']",TRAM,"{'colors': ['FF9900', 'FFD800']}",BKK_CSF00105,TRAM
BKK_F00104,BKK:BKK_F00104,47.491243,19.043612,Döbrentei tér,1016,F00104,126,1503,0,,True,"['BKK_0050', 'BKK_9560']",BUS,"{'colors': ['000000', '009EE3']}",BKK_CSF00105,BUS
BKK_F00103,BKK:BKK_F00103,47.491486,19.043705,Döbrentei tér,1013,F00103,131,1501,0,,True,"['BKK_3170', 'BKK_3410', 'BKK_3560', 'BKK_3561', 'BKK_N3180']",TRAM,"{'colors': ['FF9900', 'FFD800']}",BKK_CSF00105,TRAM
BKK_F00102,BKK:BKK_F00102,47.492492,19.042355,Szarvas tér,1013,F00102,-63,1499,0,,True,"['BKK_0050', 'BKK_9560']",BUS,"{'colors': ['000000', '009EE3']}",BKK_CSF00102,BUS
BKK_F00101,BKK:BKK_F00101,47.493114,19.043161,Várkert Bazár,1013,F00101,-175,1497,0,,True,[],BUS,{'colors': ['777777']},BKK_CSF00037,BUS
BKK_F00108,BKK:BKK_F00108,47.48984,19.047208,Rudas Gyógyfürdő,1013,F00108,149,1511,0,,True,"['BKK_0070', 'BKK_1070', 'BKK_9070', 'BKK_9730', 'BKK_9731']",BUS,"{'colors': ['000000', '009EE3']}",BKK_CS072934,BUS
BKK_F00107,BKK:BKK_F00107,47.493186,19.044315,Várkert Bazár,1013,F00107,151,1509,0,,True,"['BKK_3190', 'BKK_3410', 'BKK_N3190']",TRAM,"{'colors': ['FF9900', 'FFD800']}",BKK_CSF00037,TRAM
BKK_F00106,BKK:BKK_F00106,47.493536,19.044169,Várkert Bazár,1013,F00106,-28,1507,0,,True,"['BKK_3190', 'BKK_3410', 'BKK_N3190']",TRAM,"{'colors': ['FF9900', 'FFD800']}",BKK_CSF00037,TRAM
BKK_F00113,BKK:BKK_F00113,47.490182,19.046863,Döbrentei tér,1013,F00113,-116,1521,0,,True,"['BKK_0085', 'BKK_1085', 'BKK_1100', 'BKK_1120', 'BKK_9070', 'BKK_9080', 'BKK_9560', 'BKK_9730', 'BKK_9731']",BUS,"{'colors': ['000000', '009EE3']}",BKK_CSF00105,BUS
BKK_F00112,BKK:BKK_F00112,47.489075,19.046903,Rudas Gyógyfürdő,1016,F00112,114,1519,0,,True,[],BUS,{'colors': ['777777']},BKK_CS072934,BUS
BKK_F00111,BKK:BKK_F00111,47.489273,19.046916,Rudas Gyógyfürdő,1013,F00111,-84,1517,0,,True,"['BKK_0070', 'BKK_1070', 'BKK_9070', 'BKK_9730']",BUS,"{'colors': ['000000', '009EE3']}",BKK_CS072934,BUS
BKK_F00110,BKK:BKK_F00110,47.490074,19.044767,Döbrentei tér,1016,F00110,92,1515,0,,True,"['BKK_0085', 'BKK_1085', 'BKK_1100', 'BKK_1120', 'BKK_9080', 'BKK_9081']",BUS,"{'colors': ['000000', '009EE3']}",BKK_CSF00105,BUS
BKK_F01179,BKK:BKK_F01179,47.488742,19.095735,Kőbányai út 21.,1087,F01179,101,3649,0,,False,[],BUS,{'colors': ['777777']},BKK_CSF01180,BUS
BKK_F01178,BKK:BKK_F01178,47.48885,19.096,Kőbányai út 21.,1087,F01178,-79,3647,0,,True,[],BUS,{'colors': ['777777']},BKK_CSF01180,BUS
BKK_F01177,BKK:BKK_F01177,47.488963,19.081125,Muzsikus cigányok parkja,1083,F01177,100,3645,0,,True,"['BKK_0090', 'BKK_4720', 'BKK_4830', 'BKK_9090', 'BKK_9091']",TROLLEYBUS-BUS,"{'colors': ['000000', '009EE3', 'E41F18']}",BKK_CSF01176,TROLLEYBUS
BKK_F01176,BKK:BKK_F01176,47.489278,19.079639,Muzsikus cigányok parkja,1082,F01176,-82,3643,0,,True,"['BKK_0090', 'BKK_4720', 'BKK_4830', 'BKK_9090']",TROLLEYBUS-BUS,"{'colors': ['000000', '009EE3', 'E41F18']}",BKK_CSF01176,TROLLEYBUS
BKK_F01175,BKK:BKK_F01175,47.489191,19.066807,Szentkirályi utca,1085,F01175,-99,3641,0,,True,"['BKK_0090', 'BKK_4720', 'BKK_9090']",TROLLEYBUS-BUS,"{'colors': ['000000', '009EE3', 'E41F18']}",BKK_CSF01175,TROLLEYBUS
BKK_F01174,BKK:BKK_F01174,47.488975,19.065852,Szentkirályi utca,1085,F01174,98,3639,0,,True,"['BKK_0090', 'BKK_4720', 'BKK_4830', 'BKK_9090', 'BKK_9091']",TROLLEYBUS-BUS,"{'colors': ['000000', '009EE3', 'E41F18']}",BKK_CSF01175,TROLLEYBUS
BKK_F01171,BKK:BKK_F01171,47.49564,19.064965,Uránia,1072,F01171,-112,3633,0,,True,"['BKK_0050', 'BKK_0070', 'BKK_0085', 'BKK_1070', 'BKK_1085', 'BKK_1100', 'BKK_1120', 'BKK_1335', 'BKK_9070', 'BKK_9080', 'BKK_9160', 'BKK_9310', 'BKK_9560', 'BKK_9730', 'BKK_9731', 'BKK_9900']",BUS,"{'colors': ['000000', '009EE3']}",BKK_CSF01171,BUS
BKK_F01170,BKK:BKK_F01170,47.495586,19.065257,Uránia,1088,F01170,70,3631,0,,True,"['BKK_0050', 'BKK_0070', 'BKK_0085', 'BKK_1070', 'BKK_1085', 'BKK_1100', 'BKK_1120', 'BKK_1335', 'BKK_9070', 'BKK_9071', 'BKK_9080', 'BKK_9081', 'BKK_9310', 'BKK_9311', 'BKK_9560', 'BKK_9730', 'BKK_9731', 'BKK_9900']",BUS,"{'colors': ['000000', '009EE3']}",BKK_CSF01171,BUS
BKK_F01169,BKK:BKK_F01169,47.496224,19.070672,Blaha Lujza tér M,1085,F01169,170,3629,0,,True,"['BKK_3040', 'BKK_3060', 'BKK_N3020']",TRAM,"{'colors': ['FF9900', 'FFD800']}",BKK_CSF01116,TRAM
BKK_F01168,BKK:BKK_F01168,47.496781,19.070699,Blaha Lujza tér M,1081,F01168,-13,3627,0,,True,"['BKK_3040', 'BKK_3060']",TRAM,{'colors': ['FFD800']},BKK_CSF01116,TRAM
BKK_F01167,BKK:BKK_F01167,47.497618,19.070619,Blaha Lujza tér M,1073,F01167,-8,3625,0,,True,"['BKK_VP06', 'BKK_9230']",BUS,"{'colors': ['000000', '009EE3']}",BKK_CSF01116,BUS
BKK_F01166,BKK:BKK_F01166,47.497519,19.071495,Blaha Lujza tér M,1073,F01166,-116,3623,0,,True,"['BKK_0050', 'BKK_0070', 'BKK_0075', 'BKK_0085', 'BKK_1070', 'BKK_1085', 'BKK_1100', 'BKK_1120', 'BKK_1335', 'BKK_9070', 'BKK_9080', 'BKK_9310', 'BKK_9560', 'BKK_9730', 'BKK_9731', 'BKK_9900']",BUS,"{'colors': ['000000', '009EE3']}",BKK_CSF01116,BUS
BKK_F01165,BKK:BKK_F01165,47.496853,19.070168,Blaha Lujza tér M,1085,F01165,67,3621,0,,True,"['BKK_0085', 'BKK_1085', 'BKK_1335', 'BKK_9070', 'BKK_9071', 'BKK_9080', 'BKK_9081', 'BKK_9310', 'BKK_9311', 'BKK_9560', 'BKK_9730', 'BKK_9731', 'BKK_9900']",BUS,"{'colors': ['000000', '009EE3']}",BKK_CSF01116,BUS
BKK_F01164,BKK:BKK_F01164,47.496754,19.069849,Blaha Lujza tér M,1085,F01164,69,3619,0,,True,"['BKK_0050', 'BKK_0070', 'BKK_0075', 'BKK_1070', 'BKK_1100', 'BKK_1120']",BUS,{'colors': ['009EE3']},BKK_CSF01116,BUS
BKK_F01163,BKK:BKK_F01163,47.497491,19.074043,Kiss József utca,1081,F01163,161,3617,0,,True,['BKK_0990'],BUS,{'colors': ['009EE3']},BKK_CSF01163,BUS
BKK_F01162,BKK:BKK_F01162,47.499136,19.078384,Huszár utca,1081,F01162,69,3615,0,,True,"['BKK_0050', 'BKK_0070', 'BKK_1070', 'BKK_1100', 'BKK_1120', 'BKK_9070', 'BKK_9071', 'BKK_9080', 'BKK_9081', 'BKK_9310', 'BKK_9311', 'BKK_9560', 'BKK_9730', 'BKK_9731', 'BKK_9900']",BUS,"{'colors': ['000000', '009EE3']}",BKK_CSF01161,BUS
BKK_F01161,BKK:BKK_F01161,47.499199,19.07772,Huszár utca,1074,F01161,-115,3613,0,,True,"['BKK_0050', 'BKK_0070', 'BKK_1070', 'BKK_1100', 'BKK_1120', 'BKK_9070', 'BKK_9080', 'BKK_9310', 'BKK_9560', 'BKK_9730', 'BKK_9731', 'BKK_9900']",BUS,"{'colors': ['000000', '009EE3']}",BKK_CSF01161,BUS
BKK_F01199,BKK:BKK_F01199,47.490332,19.070815,Harminckettesek tere,1085,F01199,4,3689,0,,True,"['BKK_3040', 'BKK_3060']",TRAM,{'colors': ['FFD800']},BKK_CSF01199,TRAM
BKK_F01198,BKK:BKK_F01198,47.489991,19.070563,Harminckettesek tere,1085,F01198,-176,3687,0,,True,"['BKK_VP06', 'BKK_9230']",BUS,"{'colors': ['000000', '009EE3']}",BKK_CSF01199,BUS
BKK_F01197,BKK:BKK_F01197,47.489559,19.070589,Harminckettesek tere,1085,F01197,-174,3685,0,,True,"['BKK_3040', 'BKK_3060']",TRAM,{'colors': ['FFD800']},BKK_CSF01199,TRAM
BKK_F01196,BKK:BKK_F01196,47.489955,19.070881,Harminckettesek tere,1085,F01196,6,3683,0,,True,"['BKK_VP06', 'BKK_9230']",BUS,"{'colors': ['000000', '009EE3']}",BKK_CSF01199,BUS
BKK_F01195,BKK:BKK_F01195,47.485314,19.069579,Corvin-negyed M,1092,F01195,-179,3681,0,,True,"['BKK_VP06', 'BKK_9230', 'BKK_9340', 'BKK_9790', 'BKK_9791']",BUS,"{'colors': ['000000', '009EE3']}",BKK_CSF01190,BUS
BKK_F01194,BKK:BKK_F01194,47.486186,19.070057,Corvin-negyed M,1085,F01194,-164,3679,0,,True,"['BKK_3040', 'BKK_3060']",TRAM,{'colors': ['FFD800']},BKK_CSF01190,TRAM
BKK_F01192,BKK:BKK_F01192,47.485368,19.070946,Corvin-negyed M,1094,F01192,119,3675,0,,True,"['BKK_9140', 'BKK_9141', 'BKK_9500', 'BKK_9501']",NIGHTBUS,{'colors': ['000000']},BKK_CSF01190,BUS
BKK_F01191,BKK:BKK_F01191,47.485476,19.069898,Corvin-negyed M,1094,F01191,13,3673,0,,True,"['BKK_3040', 'BKK_3060']",TRAM,{'colors': ['FFD800']},BKK_CSF01190,TRAM
BKK_F01190,BKK:BKK_F01190,47.486591,19.070416,Corvin-negyed M,1085,F01190,10,3671,0,,True,"['BKK_VP06', 'BKK_9230']",BUS,"{'colors': ['000000', '009EE3']}",BKK_CSF01190,BUS
BKK_F01189,BKK:BKK_F01189,47.484862,19.072242,Corvin-negyed,1094,F01189,114,3669,0,,True,['BKK_5300'],M3,"{'colors': ['005CA5'], 'type': 'PRIORITY', 'image': 'stop-icon-M3'}",BKK_CSF01190,SUBWAY
BKK_F01188,BKK:BKK_F01188,47.485424,19.070866,Corvin-negyed,1094,F01188,-63,3667,0,,True,['BKK_5300'],M3,"{'colors': ['005CA5'], 'type': 'PRIORITY', 'image': 'stop-icon-M3'}",BKK_CSF01190,SUBWAY
BKK_F01187,BKK:BKK_F01187,47.489445,19.090494,Orczy tér,1086,F01187,-89,3665,0,,True,"['BKK_0090', 'BKK_2175', 'BKK_9090']",BUS,"{'colors': ['000000', '009EE3']}",BKK_CSF01217,BUS
BKK_F01186,BKK:BKK_F01186,47.489401,19.089923,Orczy tér,1086,F01186,,3663,0,,True,['BKK_4720'],TROLLEYBUS,{'colors': ['E41F18']},BKK_CSF01217,TROLLEYBUS
BKK_F01185,BKK:BKK_F01185,47.487176,19.068213,Üllői út,1085,F01185,-165,3661,0,,True,['BKK_4830'],TROLLEYBUS,{'colors': ['E41F18']},BKK_CSF01185,TROLLEYBUS
BKK_F01184,BKK:BKK_F01184,47.491919,19.089102,Magdolna utca,1087,F01184,,3659,0,,True,[],TRAM,{'colors': ['777777']},BKK_CS009702,TRAM
BKK_F01183,BKK:BKK_F01183,47.499481,19.096089,Gumigyár,1087,F01183,90,3657,0,,True,"['BKK_4800', 'BKK_9080', 'BKK_9081', 'BKK_9310', 'BKK_9311', 'BKK_9560', 'BKK_9900']",TROLLEYBUS,"{'colors': ['000000', 'E41F18']}",BKK_CSF01182,TROLLEYBUS
BKK_F01182,BKK:BKK_F01182,47.499688,19.095784,Gumigyár,1087,F01182,-91,3655,0,,True,"['BKK_4800', 'BKK_9080', 'BKK_9310', 'BKK_9560', 'BKK_9900']",TROLLEYBUS,"{'colors': ['000000', 'E41F18']}",BKK_CSF01182,TROLLEYBUS
BKK_F01181,BKK:BKK_F01181,47.488949,19.095496,Kőbányai út 21.,1087,F01181,105,3653,0,,True,"['BKK_3280', 'BKK_3281', 'BKK_3620']",TRAM,{'colors': ['FFD800']},BKK_CSF01180,TRAM
BKK_F01180,BKK:BKK_F01180,47.488985,19.095841,Kőbányai út 21.,1087,F01180,-80,3651,0,,True,"['BKK_3280', 'BKK_3281', 'BKK_3620']",TRAM,{'colors': ['FFD800']},BKK_CSF01180,TRAM
BKK_F01116,BKK:BKK_F01116,47.498319,19.069664,Blaha Lujza tér M (Dohány utca),1073,F01116,47,3523,0,,True,['BKK_4740'],TROLLEYBUS,{'colors': ['E41F18']},BKK_CSF01116,TROLLEYBUS
BKK_F01112,BKK:BKK_F01112,47.49983,19.06916,Wesselényi utca / Erzsébet körút,1073,F01112,154,3515,0,,True,"['BKK_3040', 'BKK_3060', 'BKK_N3020']",TRAM,"{'colors': ['FF9900', 'FFD800']}",BKK_CSF01115,TRAM
BKK_F01110,BKK:BKK_F01110,47.496278,19.065642,Nagy Diófa utca,1072,F01110,66,3511,0,,True,['BKK_4740'],TROLLEYBUS,{'colors': ['E41F18']},BKK_CSF01110,TROLLEYBUS
BKK_F01109,BKK:BKK_F01109,47.498554,19.06551,Nyár utca,1072,F01109,-128,3509,0,,True,['BKK_4740'],TROLLEYBUS,{'colors': ['E41F18']},BKK_CSF01109,TROLLEYBUS
BKK_F01108,BKK:BKK_F01108,47.495515,19.060134,Károly körút (Astoria M),1072,F01108,122,3507,0,,True,['BKK_4740'],TROLLEYBUS,{'colors': ['E41F18']},BKK_CSF01108,TROLLEYBUS
BKK_F01298,BKK:BKK_F01298,47.495648,19.072742,Blaha Lujza tér M (Népszínház utca),1081,F01298,84,3887,0,,True,"['BKK_3280', 'BKK_3281', 'BKK_3370', 'BKK_3371', 'BKK_3620', 'BKK_N3020']",TRAM,"{'colors': ['FF9900', 'FFD800']}",BKK_CSF01116,TRAM
BKK_F01297,BKK:BKK_F01297,47.496071,19.071336,Blaha Lujza tér M (Népszínház utca),1081,F01297,-71,3885,0,,True,"['BKK_3040', 'BKK_3060']",TRAM,{'colors': ['FFD800']},BKK_CSF01116,TRAM
BKK_F01296,BKK:BKK_F01296,47.496088,19.071534,Blaha Lujza tér M (Népszínház utca),1081,F01296,-72,3883,0,,True,['BKK_2175'],BUS,{'colors': ['009EE3']},BKK_CSF01116,BUS
BKK_F01295,BKK:BKK_F01295,47.495504,19.07103,Blaha Lujza tér M (Népszínház utca),1085,F01295,-4,3881,0,,True,"['BKK_VP06', 'BKK_9230']",BUS,"{'colors': ['000000', '009EE3']}",BKK_CSF01116,BUS
BKK_F01294,BKK:BKK_F01294,47.496151,19.071256,Blaha Lujza tér M (Népszínház utca),1081,F01294,-73,3879,0,,True,['BKK_0990'],BUS,{'colors': ['009EE3']},BKK_CSF01116,BUS
BKK_F01293,BKK:BKK_F01293,47.496484,19.070446,Blaha Lujza tér M,1085,F01293,160,3877,0,,True,"['BKK_VP06', 'BKK_9230']",BUS,"{'colors': ['000000', '009EE3']}",BKK_CSF01116,BUS
BKK_F01292,BKK:BKK_F01292,47.497006,19.070274,Blaha Lujza tér,1085,F01292,65,3875,0,,False,['BKK_5200'],M2,"{'colors': ['E41F18'], 'type': 'PRIORITY', 'image': 'stop-icon-M2'}",BKK_CSF01116,SUBWAY
BKK_F01291,BKK:BKK_F01291,47.496638,19.068841,Blaha Lujza tér,1085,F01291,-112,3873,0,,False,['BKK_5200'],M2,"{'colors': ['E41F18'], 'type': 'PRIORITY', 'image': 'stop-icon-M2'}",BKK_CSF01116,SUBWAY
BKK_F01290,BKK:BKK_F01290,47.48949,19.06192,Kálvin tér,1092,F01290,120,3871,0,,True,['BKK_5300'],M3,"{'colors': ['005CA5'], 'type': 'PRIORITY', 'image': 'stop-icon-M3'}",BKK_CS089515,SUBWAY
BKK_F01289,BKK:BKK_F01289,47.49017,19.06064,Kálvin tér,1053,F01289,-60,3869,0,,True,['BKK_5300'],M3,"{'colors': ['005CA5'], 'type': 'PRIORITY', 'image': 'stop-icon-M3'}",BKK_CS089515,SUBWAY
BKK_F01280,BKK:BKK_F01280,47.491026,19.096334,"Salgótarjáni utca, temető",1087,F01280,-80,3851,0,,True,"['BKK_3370', 'BKK_3371']",TRAM,{'colors': ['FFD800']},BKK_CSF01280,TRAM
BKK_F01216,BKK:BKK_F01216,47.490102,19.09064,Orczy tér,1086,F01216,-35,3723,0,,True,[],BUS,{'colors': ['777777']},BKK_CSF01217,BUS
BKK_F01215,BKK:BKK_F01215,47.492873,19.087298,Magdolna utca,1086,F01215,-37,3721,0,,True,"['BKK_3230', 'BKK_3240', 'BKK_3280', 'BKK_3281', 'BKK_3370', 'BKK_3371', 'BKK_3620', 'BKK_N3360']",TRAM,"{'colors': ['FF9900', 'FFD800']}",BKK_CS009702,TRAM
BKK_F01214,BKK:BKK_F01214,47.491866,19.088027,Magdolna utca,1086,F01214,91,3719,0,,True,[],TRAM,{'colors': ['777777']},BKK_CS009702,TRAM
BKK_F01213,BKK:BKK_F01213,47.492234,19.08787,Magdolna utca,1086,F01213,149,3717,0,,True,"['BKK_3230', 'BKK_3240', 'BKK_3280', 'BKK_3281', 'BKK_3370', 'BKK_3371', 'BKK_3620', 'BKK_N3360']",TRAM,"{'colors': ['FF9900', 'FFD800']}",BKK_CS009702,TRAM
BKK_F01212,BKK:BKK_F01212,47.492263,19.083476,Teleki László tér (Szerdahelyi utca),1086,F01212,144,3715,0,,True,['BKK_0990'],BUS,{'colors': ['009EE3']},BKK_CSF01330,BUS
BKK_F01211,BKK:BKK_F01211,47.492425,19.083516,Teleki László tér (Szerdahelyi utca),1086,F01211,-33,3713,0,,True,['BKK_0990'],BUS,{'colors': ['009EE3']},BKK_CSF01330,BUS
BKK_F01210,BKK:BKK_F01210,47.492039,19.079017,Mátyás tér,1084,F01210,-61,3711,0,,True,['BKK_0990'],BUS,{'colors': ['009EE3']},BKK_CSF01209,BUS
BKK_F01219,BKK:BKK_F01219,47.489805,19.09056,Orczy tér,1086,F01219,140,3729,0,,True,"['BKK_3230', 'BKK_3240', 'BKK_3280', 'BKK_3281', 'BKK_3620', 'BKK_N3360']",TRAM,"{'colors': ['FF9900', 'FFD800']}",BKK_CSF01217,TRAM
BKK_F01218,BKK:BKK_F01218,47.48913,19.092218,Orczy tér,1087,F01218,103,3727,0,,True,"['BKK_0090', 'BKK_2175', 'BKK_9090', 'BKK_9091']",BUS,"{'colors': ['000000', '009EE3', 'E41F18']}",BKK_CSF01217,TROLLEYBUS
BKK_F01217,BKK:BKK_F01217,47.490336,19.090123,Orczy tér,1086,F01217,142,3725,0,,True,[],BUS,{'colors': ['777777']},BKK_CSF01217,BUS
BKK_F01205,BKK:BKK_F01205,47.489388,19.071638,Harminckettesek tere,1082,F01205,80,3701,0,,True,"['BKK_0090', 'BKK_4720', 'BKK_4830', 'BKK_9090', 'BKK_9091']",TROLLEYBUS-BUS,"{'colors': ['000000', '009EE3', 'E41F18']}",BKK_CSF01199,TROLLEYBUS
BKK_F01204,BKK:BKK_F01204,47.489514,19.071306,Harminckettesek tere,1082,F01204,-98,3699,0,,True,"['BKK_0090', 'BKK_4720', 'BKK_4830', 'BKK_9090']",TROLLEYBUS-BUS,"{'colors': ['000000', '009EE3', 'E41F18']}",BKK_CSF01199,TROLLEYBUS
BKK_F01203,BKK:BKK_F01203,47.492662,19.070936,Rákóczi tér M,1085,F01203,-176,3697,0,,True,"['BKK_VP06', 'BKK_9230']",BUS,"{'colors': ['000000', '009EE3']}",BKK_CSF01200,BUS
BKK_F01202,BKK:BKK_F01202,47.492707,19.071281,Rákóczi tér M,1085,F01202,5,3695,0,,True,"['BKK_VP06', 'BKK_9230']",BUS,"{'colors': ['000000', '009EE3']}",BKK_CSF01200,BUS
BKK_F01201,BKK:BKK_F01201,47.492383,19.071016,Rákóczi tér M,1085,F01201,-176,3693,0,,True,"['BKK_3040', 'BKK_3060']",TRAM,{'colors': ['FFD800']},BKK_CSF01200,TRAM
BKK_F01200,BKK:BKK_F01200,47.492851,19.071188,Rákóczi tér M,1085,F01200,5,3691,0,,True,"['BKK_3040', 'BKK_3060']",TRAM,{'colors': ['FFD800']},BKK_CSF01200,TRAM
BKK_F01209,BKK:BKK_F01209,47.492381,19.078579,Mátyás tér,1084,F01209,152,3709,0,,True,['BKK_0990'],BUS,{'colors': ['009EE3']},BKK_CSF01209,BUS
BKK_F01208,BKK:BKK_F01208,47.489377,19.077397,Horváth Mihály tér,1082,F01208,96,3707,0,,True,"['BKK_0090', 'BKK_4720', 'BKK_4830', 'BKK_9090', 'BKK_9091']",TROLLEYBUS-BUS,"{'colors': ['000000', '009EE3', 'E41F18']}",BKK_CSF01207,TROLLEYBUS
BKK_F01207,BKK:BKK_F01207,47.489594,19.076707,Horváth Mihály tér,1082,F01207,-82,3705,0,,True,"['BKK_0090', 'BKK_4720', 'BKK_4830', 'BKK_9090']",TROLLEYBUS-BUS,"{'colors': ['000000', '009EE3', 'E41F18']}",BKK_CSF01207,TROLLEYBUS
BKK_F01227,BKK:BKK_F01227,47.486459,19.092561,Golgota tér,1089,F01227,174,3745,0,,True,['BKK_0990'],BUS,{'colors': ['009EE3']},BKK_CSF01227,BUS
BKK_F01226,BKK:BKK_F01226,47.486423,19.092866,Golgota tér,1089,F01226,-13,3743,0,,True,['BKK_0990'],BUS,{'colors': ['009EE3']},BKK_CSF01227,BUS
BKK_F01225,BKK:BKK_F01225,47.488403,19.08825,Csobánc utca,1086,F01225,78,3741,0,,True,['BKK_4720'],TROLLEYBUS,{'colors': ['E41F18']},BKK_CSF01225,TROLLEYBUS
BKK_F01224,BKK:BKK_F01224,47.488791,19.085371,Kálvária tér,1089,F01224,79,3739,0,,True,"['BKK_0090', 'BKK_4720', 'BKK_4830', 'BKK_9090', 'BKK_9091']",TROLLEYBUS-BUS,"{'colors': ['000000', '009EE3', 'E41F18']}",BKK_CSF01221,TROLLEYBUS
BKK_F01223,BKK:BKK_F01223,47.48889,19.085146,Kálvária tér,1089,F01223,-109,3737,0,,True,"['BKK_0090', 'BKK_4720', 'BKK_4830', 'BKK_9090']",TROLLEYBUS-BUS,"{'colors': ['000000', '009EE3', 'E41F18']}",BKK_CSF01221,TROLLEYBUS
BKK_F01222,BKK:BKK_F01222,47.489501,19.086088,Kálvária tér,1086,F01222,148,3735,0,,True,['BKK_0990'],BUS,{'colors': ['009EE3']},BKK_CSF01221,BUS
BKK_F01221,BKK:BKK_F01221,47.489888,19.085916,Kálvária tér,1086,F01221,-21,3733,0,,True,['BKK_0990'],BUS,{'colors': ['009EE3']},BKK_CSF01221,BUS
BKK_F01220,BKK:BKK_F01220,47.490273,19.090204,Orczy tér,1086,F01220,-41,3731,0,,True,"['BKK_3230', 'BKK_3240', 'BKK_3280', 'BKK_3281', 'BKK_3620', 'BKK_N3360']",TRAM,"{'colors': ['FF9900', 'FFD800']}",BKK_CSF01217,TRAM
BKK_F01229,BKK:BKK_F01229,47.485469,19.092919,Golgota tér,1089,F01229,-6,3749,0,,True,"['BKK_3230', 'BKK_3240']",TRAM,{'colors': ['FFD800']},BKK_CSF01227,TRAM
BKK_F01228,BKK:BKK_F01228,47.484992,19.092865,Golgota tér,1089,F01228,175,3747,0,,True,"['BKK_3230', 'BKK_3240']",TRAM,{'colors': ['FFD800']},BKK_CSF01227,TRAM
BKK_F01251,BKK:BKK_F01251,47.499447,19.091311,Arena Mall bevásárlóközpont,1087,F01251,90,3793,0,,True,"['BKK_4800', 'BKK_9080', 'BKK_9081', 'BKK_9310', 'BKK_9311', 'BKK_9560', 'BKK_9900']",TROLLEYBUS,"{'colors': ['000000', 'E41F18']}",BKK_CSF01250,TROLLEYBUS
BKK_F01250,BKK:BKK_F01250,47.499708,19.089851,Arena Mall bevásárlóközpont,1087,F01250,-92,3791,0,,True,"['BKK_4800', 'BKK_9080', 'BKK_9310', 'BKK_9560', 'BKK_9900']",TROLLEYBUS,"{'colors': ['000000', 'E41F18']}",BKK_CSF01250,TROLLEYBUS
BKK_F01018,BKK:BKK_F01018,47.494594,19.060933,Astoria,1072,F01018,-107,3327,0,,False,['BKK_5200'],M2,"{'colors': ['E41F18'], 'type': 'PRIORITY', 'image': 'stop-icon-M2'}",BKK_CSF01019,SUBWAY
BKK_F01017,BKK:BKK_F01017,47.494606,19.060718,Astoria M,1072,F01017,-109,3325,0,,True,"['BKK_0050', 'BKK_0070', 'BKK_0085', 'BKK_1070', 'BKK_1085', 'BKK_1100', 'BKK_1120', 'BKK_1335', 'BKK_9070', 'BKK_9080', 'BKK_9160', 'BKK_9310', 'BKK_9560', 'BKK_9730', 'BKK_9731', 'BKK_9900']",BUS,"{'colors': ['000000', '009EE3']}",BKK_CSF01019,BUS
